IMU 720.747 -0.613403 -0.201416 -0.0732422 0.0215075 -0.150553 9.66763
IMU 720.759 -0.741577 0 -0.0183105 0.0465996 -0.13263 9.68555
ODOM 720.76 0 0
IMU 720.767 -0.622559 0.00915527 -0.0274658 0.0501842 -0.154137 9.61744
ODOM 720.771 0 0
IMU 720.777 -0.714111 0.0823975 0 0.0860301 -0.121876 9.72857
ODOM 720.782 0 0
IMU 720.787 -0.732422 0.146484 0.0183105 0.0716917 -0.0967838 9.83969
ODOM 720.792 0 0
IMU 720.798 -0.531006 0.0640869 0.00915527 0.0681071 -0.0967838 9.90063
ODOM 720.803 0 0
IMU 720.807 -0.521851 -0.0183105 0.0732422 0.0752763 -0.0716917 9.85403
ODOM 720.814 0 0
IMU 720.817 -0.366211 0.0732422 0.0457764 0.0788609 -0.0250921 9.73574
ODOM 720.825 0 0
IMU 720.827 -0.3479 0.0549316 0.0732422 0.0931992 0.0107538 9.80743
ODOM 720.836 0 0
IMU 720.837 -0.0274658 0.0183105 0.146484 0.100368 0 9.93289
ODOM 720.847 0 0
IMU 720.847 -0.0915527 0.0823975 0.137329 0.100368 0.060938 9.93289
ODOM 720.858 0 0
IMU 720.859 0.0640869 0.0549316 0.109863 0.0860301 0.0573534 9.96873
ODOM 720.868 0 0
IMU 720.873 -0.0823975 -0.00915527 0.0366211 0.0752763 0.0896147 9.92572
IMU 720.877 0.00915527 -0.0457764 0 0.0645225 0.100368 9.8827
ODOM 720.879 0 0
ODOM 720.89 0 0
IMU 720.887 0.219727 -0.0366211 0.0732422 0.0501842 0.136214 9.8612
IMU 720.897 0.164795 0.00915527 -0.0366211 0.111122 0.121876 9.85761
ODOM 720.901 0 0
ODOM 720.911 0 0
IMU 720.907 0.119019 -0.109863 0 0.0322613 0.118291 9.99741
IMU 720.917 0.128174 0 0.0274658 0.0465996 0.111122 9.99741
ODOM 720.922 0 0
ODOM 720.933 0 0
IMU 720.927 0.0915527 -0.247192 -0.0457764 0.0358459 0.103953 9.88987
IMU 720.938 0.0915527 -0.137329 0 0.0107538 0.0681071 9.82894
IMU 720.947 0.0274658 0.0274658 0 0 0.0358459 9.76083
ODOM 720.944 0 0
ODOM 720.955 0 0
ODOM 720.966 0 0
IMU 720.961 0.0366211 -0.0640869 -0.0457764 0.0107538 0.043015 9.79309
IMU 720.967 0.0823975 0 -0.0457764 -0.0179229 0 9.94364
ODOM 720.976 0 0
IMU 720.984 0 -0.0274658 -0.0457764 -0.0143383 -0.043015 9.8827
IMU 720.987 0.0366211 -0.164795 -0.119019 -0.0537688 -0.0286767 9.75366
IMU 720.997 0.15564 -0.137329 0.0274658 -0.0645225 -0.107538 9.72498
IMU 721.007 0.183105 0 -0.0274658 -0.0788609 -0.0860301 9.79309
IMU 721.017 0.238037 -0.0366211 -0.0457764 -0.0681071 -0.13263 9.82894
ODOM 721.02 0 0
ODOM 721.03 0 0
IMU 721.027 0.164795 -0.164795 -0.0366211 -0.0967838 -0.0860301 9.77875
IMU 721.037 0.238037 -0.0823975 -0.0640869 -0.0681071 -0.136214 9.79667
ODOM 721.041 0 0
IMU 721.047 0.375366 -0.128174 0.0640869 -0.13263 -0.13263 9.8612
ODOM 721.052 0 0
IMU 721.057 0.146484 0.0183105 -0.0183105 -0.0860301 -0.157722 9.77875
ODOM 721.063 0 0
IMU 721.069 0.402832 -0.119019 -0.0457764 -0.0931992 -0.107538 9.71781
ODOM 721.074 0 0
IMU 721.08 0.302124 -0.0366211 0.0732422 -0.0716917 -0.107538 9.80743
ODOM 721.084 0 0
IMU 721.091 0.494385 -0.0549316 -0.0274658 -0.0967838 -0.0860301 9.84327
IMU 721.097 0.274658 -0.0274658 0.0183105 -0.0322613 -0.103953 9.81101
ODOM 721.095 0 0
ODOM 721.106 0 0
IMU 721.107 0.311279 -0.0457764 0.0640869 -0.0681071 -0.0716917 9.80026
IMU 721.117 0.0915527 -0.0183105 0.0366211 -0.043015 -0.0788609 9.8146
ODOM 721.117 0 0
IMU 721.127 0.0549316 0.0274658 -0.0274658 -0.0215075 -0.0465996 9.79309
ODOM 721.128 0 0
IMU 721.137 -0.00915527 0 -0.00915527 0.00358459 -0.0501842 9.74291
ODOM 721.139 0 0
IMU 721.147 -0.0640869 0.0640869 0.0183105 0.00716917 -0.043015 9.78592
ODOM 721.149 0 0
ODOM 721.16 0 0
IMU 721.157 -0.274658 0.119019 0.0457764 0.0537688 -0.0358459 9.84327
IMU 721.167 -0.119019 0 -0.00915527 0.0358459 -0.0394304 9.81818
ODOM 721.171 0 0
IMU 721.177 -0.0549316 0 -0.0549316 0.0537688 -0.0322613 9.76083
ODOM 721.182 0 0
IMU 721.187 -0.265503 0 0 0.0896147 -0.0286767 9.75366
IMU 721.197 -0.375366 0.0640869 -0.0366211 0.111122 -0.0358459 9.81818
ODOM 721.193 0 0
IMU 721.207 -0.32959 -0.0915527 0.0915527 0.114707 -0.0358459 9.81101
ODOM 721.203 0 0
IMU 721.217 -0.283813 0.00915527 0 0.139799 -0.0573534 9.80384
ODOM 721.214 0 0
IMU 721.227 -0.256348 0 0.0274658 0.114707 -0.043015 9.78234
ODOM 721.225 0 0
IMU 721.237 -0.292969 -0.0640869 0.0549316 0.121876 -0.0465996 9.80026
ODOM 721.236 0 0
IMU 721.247 -0.100708 -0.109863 0.0274658 0.121876 -0.0394304 9.77875
ODOM 721.247 0 0
IMU 721.257 -0.146484 -0.0457764 0.0915527 0.129045 -0.0465996 9.77517
ODOM 721.258 0 0
IMU 721.267 -0.0366211 0.0457764 -0.00915527 0.0931992 -0.0322613 9.73932
ODOM 721.268 0 0
ODOM 721.279 0 0
IMU 721.277 0.0732422 -0.0915527 -0.0457764 0.107538 -0.0107538 9.73574
IMU 721.288 0.146484 -0.0549316 0 0.0537688 -0.00358459 9.75366
ODOM 721.29 0 0
IMU 721.297 0.0366211 -0.119019 -0.0366211 0.0465996 -0.0358459 9.77517
ODOM 721.301 0 0
IMU 721.307 0.0640869 -0.0457764 -0.00915527 0.0394304 0.00358459 9.74291
ODOM 721.312 0 0
ODOM 721.322 0 0
IMU 721.317 0.228882 -0.109863 0 0.0250921 -0.0143383 9.72498
IMU 721.327 0.183105 -0.00915527 -0.109863 0.0537688 -0.00358459 9.73574
ODOM 721.333 0 0
IMU 721.339 0.0549316 -0.0366211 -0.0823975 -0.0824455 -0.0322613 9.86478
ODOM 721.344 0 0
IMU 721.349 0.146484 0.119019 -0.0366211 0.0573534 -0.0250921 9.71064
ODOM 721.355 0 0
IMU 721.36 0.119019 -0.219727 -0.0183105 -0.043015 -0.0358459 9.73932
ODOM 721.366 0 0
IMU 721.367 -0.0274658 0 -0.119019 -0.0179229 -0.043015 9.86837
ODOM 721.377 0 0
IMU 721.377 0.137329 0 0.0183105 -0.00358459 -0.0322613 9.81101
ODOM 721.387 0 0
IMU 721.387 0.109863 -0.00915527 -0.0183105 0 -0.0286767 9.8146
IMU 721.397 -0.0732422 -0.0366211 0.00915527 -0.0394304 -0.060938 9.76083
ODOM 721.398 0 0
ODOM 721.409 0 0
IMU 721.409 0 0.137329 -0.00915527 -0.0358459 -0.0716917 9.81101
IMU 721.417 0.15564 0.128174 -0.00915527 -0.0286767 -0.0501842 9.80026
ODOM 721.42 0 0
IMU 721.427 -0.0823975 -0.0183105 -0.0274658 -0.0179229 -0.0788609 9.77517
ODOM 721.431 0 0
IMU 721.437 0 0.0183105 -0.00915527 0.00358459 -0.060938 9.86837
ODOM 721.441 0 0
IMU 721.447 0.183105 0.0457764 0.0366211 -0.0107538 -0.0860301 9.81818
ODOM 721.452 0 0
IMU 721.457 -0.0183105 0 0.0549316 0.00716917 -0.100368 9.78234
ODOM 721.463 0 0
IMU 721.467 0.0640869 -0.0640869 0.0823975 0.0215075 -0.0537688 9.83252
ODOM 721.474 0 0
IMU 721.478 0.0823975 0.0549316 0.0640869 0.0286767 -0.0896147 9.78951
ODOM 721.485 0 0
IMU 721.491 0.109863 -0.137329 0 0.0358459 -0.060938 9.84686
ODOM 721.496 0 0
IMU 721.497 0.0732422 0.0274658 0.164795 0.0465996 -0.0752763 9.83252
ODOM 721.506 0 0
IMU 721.507 0.0732422 0.0549316 0.0823975 0.0286767 -0.0394304 9.75366
ODOM 721.517 0 0
IMU 721.517 0.119019 -0.0549316 -0.0183105 0.043015 -0.060938 9.82535
ODOM 721.528 0 0
IMU 721.527 0.0732422 0.0549316 0.100708 0.0143383 -0.043015 9.81818
ODOM 721.539 0 0
IMU 721.537 -0.0183105 -0.0915527 -0.0183105 0.0358459 -0.0322613 9.78951
IMU 721.548 0.0732422 -0.109863 0.109863 0.0322613 -0.0394304 9.76441
ODOM 721.55 0 0
IMU 721.557 0.0823975 0.0640869 0.0183105 0.0681071 -0.0537688 9.80743
ODOM 721.561 0 0
IMU 721.567 -0.0732422 -0.119019 0.0183105 0.0286767 -0.0179229 9.77875
ODOM 721.571 0 0
IMU 721.577 0.0183105 -0.00915527 -0.0549316 0.0215075 -0.0537688 9.81101
ODOM 721.582 0 0
IMU 721.587 -0.0274658 -0.0549316 0.00915527 0.0215075 -0.0250921 9.78951
ODOM 721.593 0 0
IMU 721.599 0.00915527 0.0183105 0.0183105 0.0107538 -0.060938 9.77517
ODOM 721.604 0 0
IMU 721.607 0.0183105 -0.100708 -0.0732422 0.00716917 -0.0179229 9.78951
ODOM 721.615 0 0
IMU 721.617 0.0366211 0 -0.0640869 0.0250921 -0.0573534 9.8146
ODOM 721.626 0 0
IMU 721.627 0.0274658 0 -0.00915527 0 -0.0286767 9.77875
ODOM 721.636 0 0
IMU 721.637 -0.0366211 0.100708 -0.0732422 0 -0.0824455 9.78234
ODOM 721.647 0 0
IMU 721.647 0.119019 0.00915527 -0.0366211 -0.0286767 -0.043015 9.81101
ODOM 721.658 0 0
IMU 721.657 0.0366211 -0.0823975 -0.0183105 -0.0107538 -0.0537688 9.80743
ODOM 721.669 0 0
IMU 721.667 0.0274658 -0.119019 0.0457764 -0.0107538 -0.043015 9.79309
ODOM 721.68 0 0
IMU 721.677 -0.100708 0.100708 -0.0274658 0.00358459 -0.0645225 9.82535
IMU 721.69 -0.0366211 -0.0366211 -0.00915527 -0.0358459 -0.043015 9.80384
ODOM 721.69 0 0
IMU 721.697 -0.128174 -0.128174 0.0640869 -0.00716917 -0.060938 9.81818
ODOM 721.701 0 0
IMU 721.707 -0.0183105 0.0732422 0.0549316 -0.0394304 -0.0358459 9.77875
ODOM 721.712 0 0
IMU 721.718 -0.192261 0 0 -0.043015 -0.0501842 9.78951
ODOM 721.723 0 0
IMU 721.728 -0.0183105 0.0549316 0.0457764 -0.0394304 -0.0250921 9.80743
ODOM 721.734 0 0
IMU 721.74 0.100708 0.0640869 0.100708 -0.0250921 -0.043015 9.77875
ODOM 721.745 0 0
IMU 721.749 -0.0457764 0.0457764 0.128174 -0.0322613 -0.0143383 9.76083
ODOM 721.755 0 0
IMU 721.757 -0.0457764 0 0.0274658 -0.0179229 -0.0143383 9.78592
ODOM 721.766 0 0
IMU 721.767 0 -0.0549316 0.0640869 -0.043015 -0.0107538 9.73932
ODOM 721.777 0 0
IMU 721.777 -0.256348 0.0274658 0.0183105 -0.0179229 -0.0250921 9.75007
IMU 721.787 -0.100708 -0.0183105 -0.0366211 -0.00716917 -0.00716917 9.75007
ODOM 721.788 0 0
IMU 721.797 -0.0732422 0 0.00915527 0 -0.0394304 9.77875
ODOM 721.799 0 0
IMU 721.807 -0.119019 0.0457764 -0.0183105 0 -0.0143383 9.75724
ODOM 721.809 0 0
IMU 721.817 -0.0549316 0.0366211 -0.0732422 0.0215075 -0.0322613 9.74649
ODOM 721.82 0 0
IMU 721.827 0.0366211 0.0549316 -0.0915527 0.0250921 -0.0250921 9.76083
ODOM 721.831 0 0
IMU 721.837 0.0274658 0.00915527 -0.0457764 0.0358459 -0.0573534 9.75724
ODOM 721.842 0 0
IMU 721.847 -0.0274658 -0.0640869 -0.15564 0.0501842 -0.0179229 9.76441
ODOM 721.853 0 0
IMU 721.857 -0.0274658 0.15564 -0.137329 0.0716917 -0.0501842 9.77517
ODOM 721.863 0 0
IMU 721.868 0.164795 -0.100708 -0.0549316 0.0573534 -0.0215075 9.768
ODOM 721.874 0 0
IMU 721.877 -0.0366211 0.0457764 -0.119019 0.0788609 -0.0537688 9.78234
ODOM 721.885 0 0
IMU 721.887 0.00915527 0.128174 0.00915527 0.0645225 -0.0465996 9.77875
ODOM 721.896 0 0
IMU 721.897 0 0.137329 -0.0274658 0.0788609 -0.0501842 9.78951
ODOM 721.907 0 0
IMU 721.907 0.0732422 0.146484 -0.0183105 0.0824455 -0.0394304 9.78234
ODOM 721.918 0 0
IMU 721.917 -0.00915527 0.0457764 0.0640869 0.121876 -0.043015 9.8361
ODOM 721.928 0 0
IMU 721.927 0.0549316 -0.00915527 0.0183105 0.0824455 -0.0358459 9.82894
ODOM 721.939 0 0
IMU 721.937 0 0.0640869 -0.0274658 0.0788609 -0.0465996 9.82894
IMU 721.947 -0.0183105 0.0549316 -0.00915527 0.0716917 -0.0179229 9.82177
ODOM 721.95 0 0
ODOM 721.961 0 0
IMU 721.957 0 0.0640869 0 0.0788609 -0.0537688 9.84686
IMU 721.968 0.15564 -0.00915527 0.109863 0.0537688 -0.0143383 9.85044
ODOM 721.972 0 0
ODOM 721.982 0 0
IMU 721.977 0.119019 -0.0366211 0.146484 0.0896147 -0.0501842 9.85761
IMU 721.991 0.146484 -0.0549316 0.0549316 0.0681071 -0.0250921 9.82894
IMU 721.997 0.00915527 0.0183105 -0.00915527 0.0537688 -0.0537688 9.85044
ODOM 721.993 0 0
IMU 722.007 0.0366211 -0.0732422 -0.00915527 0.0358459 -0.0465996 9.83252
ODOM 722.004 0 0
IMU 722.019 0.0457764 -0.0457764 0.0732422 0.0250921 -0.043015 9.82894
IMU 722.027 0.109863 -0.0915527 0.0732422 0.0322613 -0.0286767 9.82177
IMU 722.037 0.137329 -0.119019 -0.119019 0.0286767 -0.0394304 9.82535
IMU 722.047 0.247192 -0.15564 0 0.00716917 -0.0394304 9.80743
ODOM 722.047 0 0
IMU 722.057 0.0457764 -0.128174 -0.0823975 -0.0143383 -0.0573534 9.8146
ODOM 722.058 0 0
IMU 722.067 -0.0457764 -0.0549316 -0.0732422 -0.0537688 -0.0358459 9.77517
ODOM 722.069 0 0
IMU 722.077 0.0183105 -0.0457764 -0.0915527 -0.043015 -0.0537688 9.77517
ODOM 722.079 0 0
IMU 722.087 -0.0549316 -0.0915527 -0.0457764 -0.043015 -0.0465996 9.77158
ODOM 722.09 0 0
IMU 722.097 -0.109863 -0.0915527 -0.119019 -0.0358459 -0.060938 9.78234
ODOM 722.101 0 0
IMU 722.107 -0.119019 -0.137329 -0.0640869 -0.0860301 -0.0465996 9.75007
ODOM 722.112 0 0
IMU 722.117 -0.0549316 -0.183105 -0.0183105 -0.0573534 -0.0931992 9.75724
ODOM 722.123 0 0
IMU 722.127 -0.0183105 -0.0457764 0 -0.0752763 -0.0716917 9.7214
ODOM 722.133 0 0
IMU 722.139 -0.164795 0.0183105 -0.0457764 -0.060938 -0.111122 9.77875
ODOM 722.144 0 0
IMU 722.147 -0.109863 0 0.0915527 -0.0358459 -0.0788609 9.75366
ODOM 722.155 0 0
ODOM 722.166 0 0
IMU 722.157 -0.15564 0.0640869 0 -0.0358459 -0.114707 9.76441
IMU 722.17 -0.228882 0.0274658 -0.0274658 -0.0286767 -0.100368 9.75007
IMU 722.177 -0.201416 0.00915527 -0.00915527 -0.00716917 -0.100368 9.75366
ODOM 722.177 0 0
IMU 722.187 -0.137329 -0.0274658 0.0274658 -0.0215075 -0.0537688 9.76083
ODOM 722.188 0 0
IMU 722.197 -0.109863 -0.0183105 0.100708 0.00358459 -0.0465996 9.77875
ODOM 722.198 0 0
IMU 722.207 -0.164795 0.0549316 0.0183105 0.0250921 -0.0394304 9.78592
ODOM 722.209 0 0
IMU 722.217 -0.0640869 -0.0640869 0.0549316 0.0286767 -0.0286767 9.79667
ODOM 722.22 0 0
IMU 722.227 -0.137329 0.0732422 0.0823975 0.0215075 0 9.79667
ODOM 722.231 0 0
IMU 722.237 0.0640869 -0.109863 0.0274658 0.0322613 -0.00716917 9.81101
ODOM 722.242 0 0
IMU 722.247 -0.137329 0.00915527 0.0183105 0.0250921 0.0250921 9.8146
ODOM 722.252 0 0
IMU 722.258 -0.0457764 0.109863 0.0274658 0.0250921 0.0286767 9.82177
ODOM 722.263 0 0
ODOM 722.274 0 0
IMU 722.267 0.100708 0.137329 -0.0183105 0.0573534 0.0358459 9.8146
IMU 722.279 0.146484 0.119019 -0.0183105 0.0573534 0.0465996 9.84686
ODOM 722.285 0 0
IMU 722.287 0.0366211 0 -0.0366211 0.0465996 0.0465996 9.82535
ODOM 722.296 0 0
IMU 722.297 -0.0640869 0 -0.00915527 0.0394304 0.0286767 9.82535
ODOM 722.307 0 0
IMU 722.307 0.0549316 0.100708 -0.0732422 0.0286767 0.0465996 9.80743
ODOM 722.317 0 0
IMU 722.317 0.164795 0.109863 -0.0640869 0.043015 0 9.80743
IMU 722.327 0.0274658 -0.00915527 -0.0732422 0.0358459 0.0179229 9.82894
ODOM 722.328 0 0
IMU 722.337 -0.00915527 -0.0823975 -0.146484 0.0501842 -0.0250921 9.82535
ODOM 722.339 0 0
IMU 722.347 0.0549316 -0.0732422 -0.119019 0.0286767 -0.0250921 9.78234
ODOM 722.35 0 0
IMU 722.357 0.100708 -0.0274658 -0.0366211 0.0322613 -0.0681071 9.80026
ODOM 722.361 0 0
IMU 722.367 0.119019 -0.0549316 -0.0274658 0.00716917 -0.0501842 9.78951
ODOM 722.372 0 0
IMU 722.377 0.0366211 0.00915527 -0.0183105 0.0322613 -0.0788609 9.80384
ODOM 722.383 0 0
IMU 722.387 0.0457764 0.0457764 -0.0457764 0.0250921 -0.103953 9.78592
ODOM 722.393 0 0
IMU 722.399 0.0823975 -0.0366211 0.0366211 0.043015 -0.118291 9.78234
ODOM 722.404 0 0
IMU 722.407 -0.0732422 -0.109863 -0.0732422 0.0250921 -0.107538 9.76441
ODOM 722.415 0 0
IMU 722.417 0.100708 -0.0183105 0.0640869 0.0143383 -0.125461 9.77158
ODOM 722.426 0 0
IMU 722.427 0.0549316 -0.0549316 0.0823975 0.0107538 -0.0967838 9.78592
ODOM 722.437 0 0
IMU 722.439 0 -0.00915527 0.0366211 0.0322613 -0.13263 9.77158
ODOM 722.448 0 0
IMU 722.447 0.0274658 -0.100708 0.137329 0.0250921 -0.0931992 9.75724
ODOM 722.458 0 0
IMU 722.457 0.0732422 -0.109863 0.0549316 0.0465996 -0.0860301 9.77517
IMU 722.467 0.146484 0.0366211 0.0823975 0.0179229 -0.0681071 9.76083
ODOM 722.469 0 0
ODOM 722.48 0 0
IMU 722.477 0.0732422 0.00915527 0.0732422 0.0143383 -0.060938 9.768
ODOM 722.491 0 0
IMU 722.487 -0.0732422 -0.00915527 -0.0915527 -0.00358459 -0.0358459 9.77158
IMU 722.497 -0.0183105 0.0457764 0.0457764 0.00716917 -0.0322613 9.78234
IMU 722.507 0.0640869 -0.00915527 0.0915527 0.0143383 0.00358459 9.78234
ODOM 722.502 0 0
ODOM 722.512 0 0
IMU 722.517 -0.15564 0.100708 -0.0457764 0.0107538 -0.0286767 9.80026
IMU 722.528 -0.100708 0.0549316 -0.0732422 0 0.0107538 9.77517
ODOM 722.523 0 0
IMU 722.538 -0.17395 0.0274658 -0.0823975 -0.00358459 -0.0215075 9.78592
ODOM 722.534 0 0
ODOM 722.545 0 0
IMU 722.55 0.0274658 -0.0457764 -0.0366211 -0.0107538 -0.00358459 9.79667
IMU 722.557 -0.0823975 -0.0549316 -0.0549316 -0.0143383 -0.0215075 9.81101
ODOM 722.556 0 0
IMU 722.567 -0.0549316 0.137329 -0.0457764 -0.0107538 -0.0215075 9.80384
ODOM 722.567 0 0
IMU 722.577 -0.0183105 0.00915527 -0.128174 0.0107538 -0.0394304 9.79667
ODOM 722.577 0 0
IMU 722.587 -0.119019 0 -0.00915527 0 -0.0107538 9.80026
ODOM 722.588 0 0
IMU 722.598 -0.0549316 0.0915527 -0.146484 0.00716917 -0.0645225 9.80384
ODOM 722.599 0 0
IMU 722.607 0.0274658 0 -0.0915527 -0.0143383 -0.0394304 9.81101
ODOM 722.61 0 0
IMU 722.617 -0.00915527 0 -0.0915527 0 -0.0716917 9.80743
ODOM 722.621 0 0
IMU 722.629 -0.109863 0.0915527 -0.0732422 0.00716917 -0.0537688 9.80026
ODOM 722.631 0 0
IMU 722.637 -0.0457764 0.0274658 -0.00915527 0.0358459 -0.0645225 9.81101
ODOM 722.642 0 0
ODOM 722.653 0 0
IMU 722.647 -0.0915527 0.0457764 -0.0366211 0.0179229 -0.0465996 9.78234
IMU 722.658 -0.0457764 -0.0183105 0.0274658 0.0250921 -0.060938 9.78234
ODOM 722.664 0 0
ODOM 722.675 0 0
ODOM 722.686 0 0
IMU 722.669 -0.0732422 0.0457764 0.0640869 0.0179229 -0.043015 9.77517
IMU 722.678 0.0274658 0.0183105 0.0274658 0.0465996 -0.0645225 9.79667
IMU 722.687 0.0366211 -0.0366211 0.100708 0.0358459 -0.0322613 9.78234
IMU 722.697 -0.0274658 -0.00915527 0.00915527 0.0645225 -0.043015 9.79309
ODOM 722.696 0 0
ODOM 722.707 0 0
IMU 722.712 0 -0.0274658 0.100708 0.043015 -0.0250921 9.768
ODOM 722.718 0 0
IMU 722.717 0.0549316 0.0915527 0.0732422 0.0501842 -0.0286767 9.79309
ODOM 722.729 0 0
IMU 722.727 0.0549316 -0.0640869 0.0457764 0.043015 0 9.77875
IMU 722.737 0.00915527 0.0457764 0.0732422 0.0465996 -0.0143383 9.79667
ODOM 722.74 0 0
ODOM 722.751 0 0
IMU 722.747 0.0457764 -0.0366211 0.100708 0.0537688 0 9.80026
ODOM 722.761 0 0
IMU 722.757 0.0549316 0 -0.0366211 0.0645225 -0.0107538 9.80384
IMU 722.768 0.119019 -0.0366211 0.00915527 0.0143383 0.0143383 9.78592
ODOM 722.772 0 0
IMU 722.778 0.0457764 -0.0274658 0.0366211 0.0501842 -0.0143383 9.80026
ODOM 722.783 0 0
IMU 722.788 0.256348 0.0274658 0 -0.0681071 0.0788609 9.768
ODOM 722.794 0 0
IMU 722.799 0.0183105 -0.0732422 -0.0366211 0.0645225 -0.0465996 9.79309
IMU 722.807 0.15564 0.0640869 -0.128174 -0.0645225 0.0537688 9.75007
ODOM 722.805 0 0
ODOM 722.815 0 0
IMU 722.817 0.0366211 -0.00915527 -0.137329 0.0501842 -0.111122 9.80026
ODOM 722.826 0 0
IMU 722.827 0.219727 -0.0183105 -0.0640869 -0.0215075 0.0179229 9.79667
IMU 722.837 0.100708 0.0366211 -0.128174 0.00358459 -0.13263 9.80026
ODOM 722.837 0 0
IMU 722.847 0.247192 0.0274658 -0.0366211 -0.00358459 -0.043015 9.79667
ODOM 722.848 0 0
IMU 722.857 0.283813 0.0274658 0 -0.0250921 -0.125461 9.77517
ODOM 722.859 0 0
ODOM 722.87 0 0
IMU 722.867 0.192261 0.0274658 -0.0366211 0 -0.0788609 9.81101
IMU 722.877 0.0915527 -0.0457764 -0.0640869 0.0215075 -0.146968 9.75724
ODOM 722.88 0 0
IMU 722.887 0.0823975 0 -0.0183105 0 -0.0931992 9.81818
ODOM 722.891 0 0
IMU 722.897 -0.0732422 -0.0183105 -0.0457764 0.0286767 -0.179229 9.79309
IMU 722.907 0.0274658 -0.0732422 0.0640869 -0.0107538 -0.0788609 9.79309
ODOM 722.902 0 0
ODOM 722.913 0 0
IMU 722.918 0.0366211 0 0.0823975 0.00716917 -0.121876 9.76441
ODOM 722.924 0 0
IMU 722.928 0.128174 -0.0183105 0.0457764 0.0107538 -0.0681071 9.77517
ODOM 722.934 0 0
IMU 722.94 0.00915527 -0.0366211 0.0915527 0.0322613 -0.0752763 9.79667
IMU 722.947 -0.0366211 -0.146484 0.0366211 0.0250921 -0.043015 9.78234
ODOM 722.945 0 0
IMU 722.957 -0.0549316 -0.0823975 0.0183105 0.0143383 -0.043015 9.83252
ODOM 722.956 0 0
IMU 722.967 0.0366211 0 0.0183105 0.0143383 -0.0143383 9.77517
ODOM 722.967 0 0
IMU 722.977 0.0732422 0.0915527 0.0457764 0.0322613 -0.00716917 9.79309
ODOM 722.978 0 0
IMU 722.987 -0.0274658 -0.0274658 0.0183105 0.0250921 0.00716917 9.79667
ODOM 722.989 0 0
IMU 722.997 0.0274658 0.0274658 0 0.060938 -0.00358459 9.81818
ODOM 722.999 0 0
IMU 723.009 0.119019 0.00915527 -0.0274658 0.0322613 0.0250921 9.79667
ODOM 723.01 0 0
IMU 723.017 0.0732422 0 0.0183105 0.0537688 -0.0215075 9.8146
ODOM 723.021 0 0
ODOM 723.032 0 0
IMU 723.027 0.128174 0.15564 0 0.0250921 0.0143383 9.77875
IMU 723.037 0.100708 -0.00915527 -0.0366211 0.043015 -0.0143383 9.79667
ODOM 723.043 0 0
IMU 723.048 0.0457764 0.0457764 -0.0823975 0.0286767 0.00358459 9.80384
IMU 723.059 -0.00915527 0.00915527 -0.109863 0.0537688 -0.0143383 9.82535
ODOM 723.053 0 0
ODOM 723.064 0 0
IMU 723.067 0.0823975 -0.0366211 -0.0732422 0.0250921 -0.0107538 9.80743
ODOM 723.075 0 0
ODOM 723.086 0 0
IMU 723.077 -0.0732422 -0.00915527 -0.00915527 0.0394304 -0.0394304 9.79309
IMU 723.091 0.109863 -0.0640869 -0.0823975 0.00716917 -0.0501842 9.79667
IMU 723.098 -0.0823975 0 -0.109863 0.0179229 -0.0788609 9.79309
ODOM 723.097 0 0
IMU 723.107 0.100708 0 0.0274658 -0.00358459 -0.0537688 9.79667
ODOM 723.108 0 0
IMU 723.117 0.0640869 0 0 0.00716917 -0.0681071 9.80384
ODOM 723.118 0 0
IMU 723.127 0.0366211 0 -0.00915527 -0.0107538 -0.060938 9.78592
ODOM 723.129 0 0
IMU 723.137 0.201416 -0.0274658 0.0183105 0.00358459 -0.0788609 9.8146
ODOM 723.14 0 0
IMU 723.147 -0.0274658 -0.0823975 0 -0.0143383 -0.0645225 9.79309
ODOM 723.151 0 0
IMU 723.157 0.109863 -0.109863 0.0457764 -0.0179229 -0.0824455 9.78592
ODOM 723.162 0 0
ODOM 723.172 0 0
IMU 723.167 0.119019 -0.0823975 0 0 -0.0645225 9.77517
IMU 723.179 0.15564 0.0915527 -0.0183105 0.00358459 -0.0501842 9.81101
ODOM 723.183 0 0
IMU 723.189 0.109863 -0.0915527 0.0366211 0.00358459 -0.0501842 9.81101
ODOM 723.194 0 0
IMU 723.199 0.100708 -0.00915527 0.0274658 0 -0.043015 9.79309
ODOM 723.205 0 0
IMU 723.207 0.320435 0.0732422 0.00915527 -0.00716917 -0.0394304 9.77517
ODOM 723.216 0 0
IMU 723.217 0.228882 -0.00915527 -0.0183105 0.00716917 -0.0358459 9.77517
ODOM 723.226 0 0
IMU 723.227 0.0274658 0.0183105 0.0457764 0.00716917 -0.0179229 9.78234
ODOM 723.237 0 0
IMU 723.237 0.100708 0.0366211 0.0457764 0.0358459 -0.0250921 9.79309
ODOM 723.248 0 0
IMU 723.247 0.192261 -0.119019 -0.0183105 0.0215075 -0.0107538 9.77517
ODOM 723.259 0 0
IMU 723.257 0.219727 0.0183105 -0.0274658 0.0286767 -0.0143383 9.78951
ODOM 723.27 0 0
IMU 723.267 0.0823975 0.0640869 0.109863 0.0537688 0.0537688 9.76441
ODOM 723.281 0 0
IMU 723.277 0.3479 0 0.00915527 0.401474 0.673902 9.78592
IMU 723.287 0.585938 -0.411987 -0.0640869 -0.243752 0.931992 9.94364
IMU 723.297 1.09863 0.201416 0.128174 0.444489 -1.73494 9.99383
ODOM 723.291 0 0
ODOM 723.302 0 0
IMU 723.307 -0.0915527 -0.485229 -0.201416 -0.322613 0.473165 9.80026
ODOM 723.313 0 0
IMU 723.317 0.65918 0.274658 -0.0549316 -0.0465996 0.254506 10.1659
IMU 723.327 0.366211 -0.183105 0.00915527 0.146968 -0.0465996 8.99373
ODOM 723.324 0 0
IMU 723.337 0.686646 0.17395 -0.137329 -0.580703 -0.845962 9.69631
ODOM 723.335 0 0
IMU 723.347 0.0274658 0.67749 -0.128174 0.716917 0.0286767 9.75366
ODOM 723.345 0 0
ODOM 723.356 0 0
IMU 723.357 0.137329 -1.29089 -0.274658 -0.114707 -0.111122 10.1085
IMU 723.367 0.17395 -0.338745 -0.201416 -0.118291 -0.365628 9.99383
ODOM 723.367 0 0
ODOM 723.378 0 0
IMU 723.377 -0.0915527 0.292969 0.0640869 -0.0107538 -0.387135 9.2088
IMU 723.387 0.311279 0.952148 -0.320435 0.154137 0.397889 9.40954
ODOM 723.389 0 0
IMU 723.397 0.137329 -0.650024 0 0.200737 -0.620133 10.3774
ODOM 723.4 0 0
ODOM 723.41 0 0
IMU 723.406 -0.384521 -0.686646 -0.164795 -0.311859 -0.0573534 10.4598
IMU 723.416 -0.0549316 0.640869 -0.109863 0.00358459 -0.111122 9.07617
ODOM 723.421 0 0
ODOM 723.432 0 0
IMU 723.426 -0.292969 -0.0274658 -0.0823975 0.193568 -0.286767 9.31275
IMU 723.438 -0.256348 -0.32959 0.0640869 -0.060938 -0.129045 10.5459
IMU 723.446 -0.430298 0.137329 0.0549316 -0.161306 -0.0824455 10.2053
ODOM 723.443 0 0
IMU 723.456 -0.476074 0.15564 0.0823975 0.0645225 -0.265259 9.21597
ODOM 723.454 0 0
ODOM 723.465 0 0
IMU 723.466 -0.466919 -0.439453 0.109863 0 -0.0179229 9.76083
IMU 723.476 -0.320435 0.311279 0.0915527 -0.0215075 0.0501842 10.1731
ODOM 723.475 0 0
IMU 723.486 -0.512695 0.00915527 0.137329 0.0179229 -0.136214 9.60669
ODOM 723.486 0 0
IMU 723.496 -0.476074 -0.384521 0.164795 0 0.0896147 9.68914
ODOM 723.497 0 0
IMU 723.506 -0.320435 0.15564 0.15564 -0.0860301 0.0573534 9.93289
ODOM 723.508 0 0
ODOM 723.519 0 0
IMU 723.516 -0.32959 0.375366 0.119019 0.125461 -0.0322613 9.6748
IMU 723.526 -0.302124 -0.338745 0.128174 0.0143383 0.0645225 9.90421
ODOM 723.53 0 0
IMU 723.536 -0.265503 -0.0732422 0.17395 -0.0537688 0.0788609 9.9078
ODOM 723.54 0 0
IMU 723.547 -0.311279 0.375366 0.119019 0.0645225 0.125461 9.47765
ODOM 723.551 0 0
IMU 723.557 -0.0915527 0.183105 -0.0183105 0.107538 0.107538 9.67838
IMU 723.567 -0.0366211 -0.466919 -0.0274658 -0.00358459 0.13263 10.1515
IMU 723.577 -0.146484 0.109863 -0.109863 -0.0465996 0.0573534 9.80743
IMU 723.588 0.109863 0.375366 -0.0640869 0.118291 0.0501842 9.43822
ODOM 723.594 0 0
IMU 723.597 0 -0.219727 -0.192261 0.0752763 0.043015 9.78951
IMU 723.607 0 -0.146484 -0.0549316 -0.0107538 -0.0537688 10.0261
ODOM 723.605 0 0
IMU 723.617 0.15564 0.100708 -0.146484 0.0681071 0.060938 9.768
ODOM 723.616 0 0
IMU 723.628 0.0640869 -0.0366211 -0.0457764 0.0286767 -0.0394304 9.6282
ODOM 723.627 0 0
IMU 723.637 0.17395 -0.0549316 -0.183105 0.00716917 -0.0107538 9.85761
ODOM 723.638 0 0
IMU 723.647 0.137329 0.0366211 -0.17395 0 -0.118291 9.85403
ODOM 723.648 0 0
IMU 723.657 0.320435 -0.00915527 -0.0366211 0.0931992 -0.125461 9.73215
ODOM 723.659 0 0
IMU 723.667 0.146484 0.00915527 0.0183105 0.00358459 -0.161306 9.75724
ODOM 723.67 0 0
IMU 723.677 0.0640869 0.0366211 -0.0366211 0.0394304 -0.154137 9.83969
ODOM 723.681 0 0
IMU 723.687 0.109863 0.0274658 0.0457764 0.0179229 -0.107538 9.89346
ODOM 723.692 0 0
IMU 723.697 -0.00915527 0 0.0640869 0.00716917 -0.168476 9.74291
ODOM 723.703 0 0
ODOM 723.713 0 0
IMU 723.708 0.210571 0 0.0183105 -0.00716917 -0.0860301 9.72857
IMU 723.719 0.183105 0 0.183105 -0.0107538 -0.179229 9.83252
IMU 723.727 0.0274658 -0.0183105 0.146484 0.0250921 -0.0573534 9.8612
ODOM 723.724 0 0
IMU 723.739 0.0915527 0 0.128174 -0.00358459 -0.125461 9.768
ODOM 723.735 0 0
IMU 723.747 0.00915527 -0.0274658 0.0823975 0.00358459 -0.0681071 9.82535
ODOM 723.746 0 0
IMU 723.757 0.0640869 0.0640869 0 -0.0358459 -0.0681071 9.84686
ODOM 723.757 0 0
IMU 723.767 0.0640869 -0.0274658 0.164795 -0.0143383 -0.0716917 9.77517
ODOM 723.767 0 0
IMU 723.777 0.0366211 -0.0457764 0 0.0179229 -0.0179229 9.76441
ODOM 723.778 0 0
ODOM 723.789 0 0
IMU 723.787 0.00915527 0.0274658 -0.00915527 -0.0107538 -0.0107538 9.84327
IMU 723.797 -0.0274658 0.0366211 0 0.0215075 -0.00358459 9.84686
ODOM 723.8 0 0
IMU 723.807 0.0183105 -0.0183105 -0.0549316 -0.0179229 -0.0107538 9.75007
ODOM 723.811 0 0
IMU 723.817 0.0366211 -0.0457764 -0.0640869 -0.00358459 -0.0501842 9.77875
ODOM 723.822 0 0
IMU 723.827 0 0.0640869 -0.0915527 0.0143383 -0.0286767 9.78951
ODOM 723.832 0 0
ODOM 723.843 0 0
IMU 723.838 0.00915527 0.0823975 -0.0274658 0.00716917 -0.0645225 9.78951
IMU 723.848 0.100708 -0.0183105 -0.0457764 -0.00358459 -0.0394304 9.76441
ODOM 723.854 0 0
IMU 723.857 -0.137329 -0.0549316 -0.0457764 0.0179229 -0.0394304 9.80026
ODOM 723.865 0 0
IMU 723.867 0.0640869 -0.0274658 -0.0457764 0.00716917 -0.0645225 9.80384
ODOM 723.876 0 0
IMU 723.877 -0.119019 0 -0.0274658 0.0143383 -0.0824455 9.75724
ODOM 723.886 0 0
ODOM 723.897 0 0
IMU 723.887 -0.137329 0.100708 -0.0823975 0.0215075 -0.0716917 9.75724
IMU 723.897 -0.119019 0 0 0.0465996 -0.13263 9.80384
ODOM 723.908 0 0
IMU 723.907 -0.0640869 -0.0366211 -0.0640869 0.0322613 -0.0931992 9.77158
ODOM 723.919 0 0
IMU 723.917 0 -0.0823975 0.0183105 0.0465996 -0.0967838 9.81101
ODOM 723.93 0 0
IMU 723.928 -0.128174 -0.00915527 0.201416 0.0358459 -0.0537688 9.8146
IMU 723.937 -0.164795 -0.00915527 0.0640869 0.0465996 -0.0645225 9.78234
ODOM 723.94 0 0
IMU 723.947 -0.0732422 0.0732422 0.0549316 0.0573534 -0.0394304 9.76441
ODOM 723.951 0 0
IMU 723.957 -0.00915527 -0.100708 0.0274658 0.0465996 -0.0645225 9.82535
ODOM 723.962 0 0
IMU 723.968 0.0366211 -0.0549316 0.146484 0.0286767 -0.0824455 9.75366
ODOM 723.973 0 0
IMU 723.977 0.0549316 0.100708 0.192261 0.0537688 -0.00716917 9.80384
ODOM 723.984 0 0
IMU 723.987 -0.0915527 0 0.0274658 0.0322613 0 9.87912
ODOM 723.994 0 0
IMU 723.997 0 -0.0915527 0.119019 0.0143383 0.00716917 9.79309
ODOM 724.005 0 0
IMU 724.007 0.183105 -0.0457764 0.100708 0.0286767 0.0286767 9.75366
IMU 724.017 0.15564 0.0274658 -0.0183105 0.0179229 0.00358459 9.76441
ODOM 724.016 0 0
IMU 724.027 0.183105 0 0.0183105 0.00716917 0.0358459 9.79667
ODOM 724.027 0 0
IMU 724.037 0 0.0640869 -0.0732422 0.0143383 0.0394304 9.90063
ODOM 724.038 0 0
ODOM 724.048 0 0
IMU 724.047 0.0732422 -0.0457764 -0.0274658 -0.00716917 -0.00716917 9.77517
IMU 724.057 0.00915527 0.0274658 -0.0183105 -0.00716917 -0.00358459 9.74649
ODOM 724.059 0 0
IMU 724.067 0.17395 -0.128174 -0.119019 -0.00716917 -0.0215075 9.80026
ODOM 724.07 0 0
ODOM 724.081 0 0
IMU 724.077 0.0823975 -0.0274658 -0.100708 0.0179229 -0.0394304 9.79309
ODOM 724.092 0 0
IMU 724.087 0.0457764 -0.137329 -0.100708 -0.0358459 -0.0394304 9.80743
IMU 724.097 -0.00915527 0 -0.128174 -0.0107538 -0.0931992 9.77158
IMU 724.107 0 -0.146484 -0.15564 0.00358459 -0.060938 9.80743
ODOM 724.103 0 0
ODOM 724.114 0 0
IMU 724.118 0.164795 -0.0457764 -0.0366211 -0.0358459 -0.107538 9.80384
IMU 724.127 0.17395 0.00915527 0.0183105 -0.00358459 -0.114707 9.768
ODOM 724.124 0 0
IMU 724.137 0 -0.0640869 0.0366211 0.0537688 -0.200737 9.74291
ODOM 724.135 0 0
IMU 724.147 0.0640869 -0.0549316 0.0457764 -0.0107538 -0.13263 9.80026
ODOM 724.146 0 0
IMU 724.157 0.0732422 0.0183105 0 0.0215075 -0.114707 9.83252
ODOM 724.157 0 0
ODOM 724.168 0 0
IMU 724.167 0.15564 0 0.0274658 0.0107538 -0.13263 9.77875
IMU 724.177 -0.0823975 0.0549316 0.0915527 0 -0.154137 9.77158
ODOM 724.178 0 0
IMU 724.187 0.146484 0.15564 0.100708 0.0286767 -0.111122 9.7214
ODOM 724.189 0 0
IMU 724.197 -0.137329 0.0823975 0.0366211 0.0322613 -0.0967838 9.78951
ODOM 724.2 0 0
IMU 724.207 -0.0549316 0 0.100708 0.0215075 -0.0931992 9.85044
ODOM 724.211 0 0
IMU 724.217 -0.119019 -0.00915527 0.0457764 0.0286767 -0.043015 9.79309
ODOM 724.222 0 0
IMU 724.23 0.0823975 -0.0732422 0.15564 0.00716917 -0.00716917 9.77158
ODOM 724.232 0 0
IMU 724.237 -0.137329 0 0.146484 0.0250921 -0.0286767 9.78592
ODOM 724.243 0 0
IMU 724.247 -0.0274658 0.0274658 0.137329 0.0358459 0.0179229 9.77517
ODOM 724.254 0 0
IMU 724.257 0 0.0640869 0.0457764 0.043015 -0.00358459 9.78951
ODOM 724.265 0 0
IMU 724.267 -0.137329 0.0823975 0 0.0358459 0.00358459 9.81101
IMU 724.277 0.0274658 0.0366211 0 0.0215075 0.0179229 9.80384
ODOM 724.276 0 0
IMU 724.287 -0.17395 0 -0.0549316 0.00358459 0.0107538 9.80743
ODOM 724.287 0 0
IMU 724.297 -0.137329 0 0 0.0250921 0 9.78951
ODOM 724.297 0 0
IMU 724.307 -0.0640869 -0.0274658 -0.128174 0 0.0143383 9.77158
ODOM 724.308 0 0
IMU 724.317 -0.0549316 -0.0366211 -0.0274658 0.0215075 -0.0250921 9.79309
ODOM 724.319 0 0
IMU 724.327 -0.0274658 -0.0457764 -0.109863 0.0322613 -0.0215075 9.79667
IMU 724.337 0.0183105 -0.0274658 -0.100708 0.00716917 -0.043015 9.82535
IMU 724.347 0.146484 0.0732422 -0.0823975 0 -0.060938 9.78951
IMU 724.357 -0.0640869 0.0457764 0.0366211 0.0215075 -0.0824455 9.74649
ODOM 724.362 0 0
IMU 724.368 0.0457764 -0.0183105 -0.100708 0.0107538 -0.103953 9.78951
ODOM 724.373 0 0
IMU 724.377 0 0.00915527 0 0.0322613 -0.103953 9.81101
ODOM 724.384 0 0
IMU 724.389 0.0915527 0 -0.0366211 0.00358459 -0.0752763 9.76441
ODOM 724.395 0 0
IMU 724.397 0.0549316 -0.0823975 0.0366211 0.0358459 -0.103953 9.85403
ODOM 724.405 0 0
IMU 724.407 0.0457764 0.0640869 0 0.00358459 -0.0824455 9.79667
ODOM 724.416 0 0
IMU 724.417 0.100708 0.0274658 0 0.0215075 -0.114707 9.75724
IMU 724.427 0.146484 0 0.146484 0.0179229 -0.0645225 9.77517
ODOM 724.427 0 0
IMU 724.437 0 -0.0732422 0.100708 0.0215075 -0.0716917 9.80743
ODOM 724.438 0 0
IMU 724.447 0.0732422 0.0183105 0.164795 0.00716917 -0.0501842 9.80384
ODOM 724.449 0 0
IMU 724.457 0.0274658 -0.0823975 0.0457764 0.0250921 -0.0394304 9.79667
ODOM 724.459 0 0
IMU 724.467 0.0274658 0.0183105 0.100708 0 -0.0250921 9.78951
ODOM 724.47 0 0
IMU 724.477 0.109863 -0.0457764 0.0640869 0.0107538 -0.043015 9.78951
ODOM 724.481 0 0
IMU 724.487 0 0.0823975 0.0274658 0.0107538 0 9.78234
ODOM 724.492 0 0
IMU 724.497 0.192261 -0.0457764 -0.0183105 0.0215075 -0.0358459 9.79309
ODOM 724.503 0 0
IMU 724.507 0.0915527 -0.146484 -0.0549316 0.0143383 0.0143383 9.79667
ODOM 724.513 0 0
IMU 724.519 0.128174 0.0457764 -0.0549316 0.00716917 -0.0250921 9.77875
ODOM 724.524 0 0
IMU 724.527 0.0274658 -0.0915527 -0.0457764 0.0107538 0.0107538 9.77517
ODOM 724.535 0 0
IMU 724.537 0.137329 0.0823975 -0.0549316 0.0573534 -0.0537688 9.80026
ODOM 724.546 0 0
IMU 724.551 0.0915527 0 -0.0274658 0.103953 -0.0465996 9.75007
ODOM 724.557 0 0
IMU 724.557 0.183105 0.192261 -0.0274658 0.164891 -0.0358459 9.77517
ODOM 724.567 0 0
IMU 724.567 0.128174 0.0823975 -0.0915527 0.146968 -0.0286767 9.76083
ODOM 724.578 0 0
IMU 724.577 0.119019 0.119019 -0.128174 0.197152 -0.0645225 9.78951
ODOM 724.589 0 0
IMU 724.587 0.238037 0.164795 -0.109863 0.229414 -0.0716917 9.78234
ODOM 724.6 0 0
IMU 724.597 0.274658 0.183105 -0.128174 0.21866 -0.0537688 9.74649
IMU 724.607 0.265503 0.109863 -0.0183105 0.250921 -0.0681071 9.79309
ODOM 724.611 0 0
IMU 724.617 0.256348 0.228882 -0.128174 0.276013 -0.060938 9.80384
ODOM 724.622 0 0
IMU 724.627 0.201416 0.265503 -0.119019 0.236583 -0.0716917 9.78592
ODOM 724.632 0 0
IMU 724.638 0.283813 0.192261 -0.0732422 0.250921 -0.0465996 9.82177
ODOM 724.643 0 0
IMU 724.647 0.210571 0.228882 -0.109863 0.229414 -0.0465996 9.79667
ODOM 724.654 0 0
IMU 724.659 0.15564 0.119019 0.0915527 0.211491 -0.0788609 9.8146
ODOM 724.665 0 0
IMU 724.67 0.15564 0.265503 -0.0274658 0.204321 -0.0358459 9.81818
ODOM 724.676 0 0
ODOM 724.687 0 0
IMU 724.677 0.283813 0.100708 -0.0823975 0.189983 -0.0501842 9.8361
IMU 724.687 0.17395 0.256348 -0.109863 0.157722 -0.0501842 9.83969
IMU 724.697 0.164795 0.210571 0 0.114707 -0.0465996 9.87554
ODOM 724.697 0 0
IMU 724.707 0.137329 0.183105 -0.0274658 0.043015 -0.0645225 9.85761
ODOM 724.708 0 0
IMU 724.717 0.146484 0.183105 0 0.103953 -0.00358459 9.82535
ODOM 724.719 0 0
IMU 724.727 0.228882 0.256348 -0.100708 0.200737 -0.0322613 9.73574
IMU 724.738 0.201416 0.0457764 -0.109863 0.293936 0.0107538 9.70347
IMU 724.747 0.320435 0.100708 -0.109863 0.272429 -0.0322613 9.74291
IMU 724.757 0.338745 0.146484 -0.0915527 0.157722 -0.0501842 9.78951
ODOM 724.762 0 0
IMU 724.767 0.274658 0.15564 -0.192261 0.107538 0.0179229 9.72498
ODOM 724.773 0 0
IMU 724.777 0.302124 0.146484 -0.210571 0.0788609 -0.0645225 9.68197
ODOM 724.784 0 0
IMU 724.788 0.164795 0.274658 -0.192261 0.175645 0.0179229 9.66404
ODOM 724.795 0 0
IMU 724.797 0.256348 0.375366 -0.274658 0.243752 -0.043015 9.66404
ODOM 724.805 0 0
ODOM 724.816 0 0
IMU 724.806 0.357056 0.183105 -0.15564 0.175645 -0.0394304 9.67838
ODOM 724.827 0 0
IMU 724.823 0.384521 0.192261 -0.302124 0.143383 -0.0394304 9.71423
IMU 724.826 0.411987 0.219727 -0.311279 0.0286767 -0.0967838 9.66763
IMU 724.836 0.311279 0.274658 -0.292969 0 -0.0788609 9.7214
ODOM 724.838 0 0
IMU 724.846 0.311279 0.411987 -0.283813 0.0537688 -0.103953 9.65329
ODOM 724.849 0 0
IMU 724.856 0.192261 0.448608 -0.247192 0.139799 -0.0681071 9.66763
ODOM 724.859 0 0
ODOM 724.87 0 0
IMU 724.866 0.274658 0.366211 -0.338745 0.114707 -0.0752763 9.68555
IMU 724.876 0.137329 0.3479 -0.283813 0.0788609 -0.0931992 9.72857
ODOM 724.881 0 0
ODOM 724.892 0 0
IMU 724.887 0.256348 0.274658 -0.192261 -0.0179229 -0.111122 9.72498
IMU 724.897 0.109863 0.402832 -0.265503 -0.0573534 -0.125461 9.70706
ODOM 724.903 0 0
IMU 724.906 0.15564 0.512695 -0.183105 0.0501842 -0.125461 9.60311
IMU 724.916 0.109863 0.650024 -0.265503 0.207906 -0.125461 9.63178
ODOM 724.913 0 0
ODOM 724.924 0 0
IMU 724.927 0.146484 0.631714 -0.128174 0.261675 -0.146968 9.76441
ODOM 724.935 0 0
IMU 724.936 0.164795 0.540161 -0.228882 0.222244 -0.118291 9.78592
ODOM 724.946 0 0
IMU 724.946 0.0732422 0.466919 -0.109863 0.182814 -0.0860301 9.76441
IMU 724.956 0.0732422 0.512695 -0.164795 0.146968 -0.107538 9.84686
ODOM 724.957 0 0
ODOM 724.968 0 0
IMU 724.966 -0.00915527 0.384521 -0.119019 0.161306 -0.0896147 9.77517
ODOM 724.979 0 0
IMU 724.976 0.201416 0.476074 -0.100708 0.154137 -0.0896147 9.81101
ODOM 724.989 0 0
IMU 724.986 0.228882 0.338745 -0.15564 0.125461 -0.0896147 9.89346
IMU 724.996 0.0915527 0.448608 -0.128174 0.129045 -0.0716917 9.96515
ODOM 725 0 0
ODOM 725.011 0 0
IMU 725.006 0.0823975 0.375366 -0.274658 0.154137 -0.0286767 9.99024
IMU 725.016 0.192261 0.3479 -0.164795 0.13263 -0.0322613 9.90421
ODOM 725.022 0 0
IMU 725.027 -0.0366211 0.320435 -0.137329 0.121876 -0.0286767 9.85403
ODOM 725.032 0 0
IMU 725.036 0.0274658 0.311279 -0.238037 0.121876 -0.0573534 9.9078
IMU 725.046 0.0457764 0.201416 -0.219727 0.118291 -0.043015 9.96157
ODOM 725.043 0 0
ODOM 725.054 0 0
IMU 725.056 0.137329 0.201416 -0.274658 0.157722 -0.0465996 10.0046
ODOM 725.065 0 0
IMU 725.066 0.146484 0.137329 -0.292969 0.154137 -0.0179229 9.94364
IMU 725.076 0 0.210571 -0.302124 0.146968 0 9.94364
ODOM 725.076 0 0
ODOM 725.086 0 0
IMU 725.091 0.0823975 0.0549316 -0.3479 0.168476 -0.0143383 9.91855
IMU 725.096 0.0640869 0.137329 -0.393677 0.182814 -0.0358459 9.86837
ODOM 725.097 0 0
IMU 725.106 0.0823975 0.119019 -0.357056 0.21866 -0.0573534 9.86837
ODOM 725.108 0 0
ODOM 725.119 0 0
IMU 725.116 0.0457764 0.0457764 -0.393677 0.204321 -0.0931992 9.92213
IMU 725.126 0.00915527 0.00915527 -0.384521 0.189983 -0.0752763 9.95081
ODOM 725.13 0 0
ODOM 725.14 0 0
IMU 725.136 0.0915527 -0.109863 -0.357056 0.186398 -0.0681071 9.89346
IMU 725.148 0.0366211 -0.17395 -0.402832 0.225829 -0.100368 9.82535
ODOM 725.151 0 0
IMU 725.157 0.00915527 0.0366211 -0.402832 0.250921 -0.0860301 9.8146
ODOM 725.162 1 0
IMU 725.167 0.0823975 -0.0457764 -0.228882 0.25809 -0.100368 9.80743
ODOM 725.173 0 1
IMU 725.176 -0.0823975 0.0183105 -0.283813 0.240167 -0.157722 9.85044
ODOM 725.184 0 0
IMU 725.186 0.0915527 -0.0183105 -0.228882 0.232998 -0.136214 9.85761
ODOM 725.195 0 0
IMU 725.196 -0.00915527 -0.0915527 -0.247192 0.25809 -0.129045 9.81818
IMU 725.207 0.0640869 0.0183105 -0.320435 0.265259 -0.0681071 9.78592
ODOM 725.205 0 0
IMU 725.217 0.100708 0.0274658 -0.292969 0.25809 -0.103953 9.77517
ODOM 725.216 0 0
IMU 725.227 0.119019 0 -0.311279 0.272429 -0.0967838 9.75366
ODOM 725.227 0 0
IMU 725.237 0.15564 -0.0457764 -0.219727 0.286767 -0.118291 9.79309
ODOM 725.238 0 0
ODOM 725.249 0 0
IMU 725.247 0.0640869 0.0183105 -0.265503 0.286767 -0.0967838 9.80026
IMU 725.257 0.219727 0 -0.283813 0.283182 -0.0860301 9.77875
ODOM 725.259 0 0
ODOM 725.27 0 0
IMU 725.267 0.238037 0.164795 -0.265503 0.301105 -0.0358459 9.74291
IMU 725.277 0.183105 0.00915527 -0.274658 0.297521 -0.0250921 9.75366
ODOM 725.281 0 0
ODOM 725.292 0 0
IMU 725.287 0.164795 0.119019 -0.338745 0.311859 -0.0286767 9.73932
IMU 725.298 0.238037 0.0549316 -0.320435 0.315444 -0.0179229 9.76441
ODOM 725.303 0 0
IMU 725.308 0.183105 0.0549316 -0.393677 0.308274 -0.0465996 9.75366
IMU 725.317 0.128174 0.210571 -0.393677 0.319028 -0.0179229 9.78234
ODOM 725.313 0 0
IMU 725.327 0.238037 0.0915527 -0.393677 0.329782 -0.0215075 9.76441
ODOM 725.324 0 0
IMU 725.337 0.15564 0.210571 -0.531006 0.340536 0 9.76441
ODOM 725.335 0 0
IMU 725.347 0.119019 0.0823975 -0.521851 0.340536 0.00358459 9.72498
ODOM 725.346 0 0
IMU 725.357 0.17395 0.0457764 -0.604248 0.358459 -0.043015 9.76083
ODOM 725.357 0 0
ODOM 725.368 0 0
IMU 725.366 0.219727 0.274658 -0.521851 0.365628 -0.0465996 9.77158
ODOM 725.378 0 0
IMU 725.376 0.119019 0.17395 -0.631714 0.365628 -0.0860301 9.76441
ODOM 725.389 0 1
IMU 725.386 0.146484 0.17395 -0.631714 0.379966 -0.0537688 9.76083
IMU 725.396 0.183105 0.137329 -0.650024 0.401474 -0.0645225 9.768
ODOM 725.4 1 0
IMU 725.406 0.0823975 0.109863 -0.714111 0.394304 -0.0716917 9.77517
IMU 725.416 0.128174 0.15564 -0.805664 0.405058 -0.0860301 9.768
IMU 725.426 0.210571 0.0640869 -0.668335 0.397889 -0.0860301 9.768
IMU 725.437 0.164795 0.146484 -0.805664 0.379966 -0.13263 9.77517
IMU 725.446 0.0640869 0.292969 -0.778198 0.433735 -0.103953 9.79309
ODOM 725.443 0 0
IMU 725.456 0.183105 0.0732422 -0.704956 0.440904 -0.139799 9.78951
ODOM 725.454 0 0
ODOM 725.465 0 0
IMU 725.472 0.183105 0.183105 -0.704956 0.448073 -0.111122 9.77158
IMU 725.476 0.228882 0.100708 -0.723267 0.440904 -0.121876 9.77875
ODOM 725.476 0 0
ODOM 725.486 0 0
IMU 725.486 0.109863 0.15564 -0.787354 0.422981 -0.121876 9.80384
ODOM 725.497 0 0
IMU 725.496 0.210571 0.15564 -0.67749 0.448073 -0.125461 9.81818
IMU 725.506 0.0732422 0.119019 -0.823975 0.47675 -0.125461 9.79667
ODOM 725.508 0 0
ODOM 725.519 0 0
IMU 725.516 0.265503 0.100708 -0.83313 0.465996 -0.121876 9.80743
ODOM 725.53 0 0
IMU 725.526 0.292969 0.109863 -0.787354 0.465996 -0.0860301 9.77875
IMU 725.536 0.219727 0.17395 -0.83313 0.473165 -0.0967838 9.81818
ODOM 725.541 0 1
ODOM 725.551 1 0
IMU 725.547 0.292969 0.0732422 -0.897217 0.494673 -0.0967838 9.82535
IMU 725.556 0.201416 0.183105 -0.814819 0.494673 -0.0752763 9.80384
ODOM 725.562 0 0
IMU 725.566 0.183105 0.0366211 -0.85144 0.483919 -0.060938 9.79309
ODOM 725.573 0 0
IMU 725.576 0.100708 0.0457764 -0.952148 0.498257 -0.0681071 9.82894
IMU 725.588 0.137329 0.0457764 -0.952148 0.494673 -0.0465996 9.80384
ODOM 725.584 0 0
IMU 725.596 0.164795 0.0823975 -0.997925 0.505427 -0.0322613 9.8146
ODOM 725.595 0 0
IMU 725.606 0.0732422 0.128174 -1.15356 0.51618 -0.0322613 9.80384
ODOM 725.606 0 0
IMU 725.616 0.0732422 0.0274658 -1.07117 0.509011 -0.0681071 9.80743
ODOM 725.616 0 0
IMU 725.627 0.0549316 0.0549316 -1.08032 0.530519 -0.043015 9.82177
ODOM 725.627 0 0
IMU 725.636 0.0457764 0.0732422 -1.17188 0.512596 -0.0394304 9.81101
ODOM 725.638 0 1
ODOM 725.649 0 0
IMU 725.646 0.15564 0.0823975 -1.22681 0.534103 -0.0250921 9.78592
IMU 725.656 0.15564 -0.0457764 -1.3092 0.534103 -0.0358459 9.81101
ODOM 725.66 1 0
IMU 725.666 0.183105 0.0549316 -1.3916 0.51618 -0.0179229 9.81101
ODOM 725.67 0 0
ODOM 725.681 0 0
IMU 725.678 0.201416 0.109863 -1.41907 0.555611 -0.0645225 9.79667
IMU 725.686 0.0457764 0.17395 -1.51978 0.569949 -0.043015 9.78234
ODOM 725.692 0 0
IMU 725.697 0.192261 0.0549316 -1.53809 0.559195 -0.107538 9.82535
ODOM 725.703 0 0
IMU 725.709 0.119019 0.0183105 -1.43738 0.555611 -0.060938 9.78592
ODOM 725.714 0 1
IMU 725.716 0.228882 0.00915527 -1.57471 0.56278 -0.0931992 9.78592
ODOM 725.725 0 0
IMU 725.726 0.228882 0.0732422 -1.60217 0.580703 -0.0716917 9.81101
ODOM 725.735 0 0
IMU 725.736 0.265503 0.0732422 -1.64795 0.595041 -0.0896147 9.768
ODOM 725.746 1 0
IMU 725.746 0.302124 0.146484 -1.74866 0.591457 -0.111122 9.78592
ODOM 725.757 0 0
IMU 725.757 0.201416 0.164795 -1.7395 0.598626 -0.125461 9.81101
ODOM 725.768 0 0
IMU 725.766 0.17395 0.109863 -1.8219 0.605795 -0.114707 9.76083
ODOM 725.779 0 0
IMU 725.777 0.128174 0.0732422 -1.87683 0.591457 -0.139799 9.8146
IMU 725.786 0.256348 0.128174 -1.81274 0.616549 -0.0860301 9.78234
ODOM 725.79 0 1
ODOM 725.8 0 0
IMU 725.797 0.146484 0.192261 -1.88599 0.616549 -0.121876 9.75724
IMU 725.807 0.0640869 0.146484 -1.95923 0.638056 -0.100368 9.8146
ODOM 725.811 1 0
IMU 725.816 0.228882 0.119019 -2.02332 0.64881 -0.107538 9.78951
IMU 725.826 0.17395 0.0640869 -2.01416 0.623718 -0.121876 9.78951
ODOM 725.822 0 0
IMU 725.836 0.192261 0.0640869 -2.09656 0.64881 -0.118291 9.78592
ODOM 725.833 0 0
IMU 725.849 0.0915527 0.128174 -2.04163 0.620133 -0.0788609 9.77875
ODOM 725.844 0 1
ODOM 725.855 0 0
IMU 725.856 0.17395 0.283813 -2.12402 0.652395 -0.0896147 9.80384
IMU 725.866 0.283813 0.219727 -2.24304 0.677487 -0.0716917 9.78234
ODOM 725.865 0 0
IMU 725.877 0.0640869 0.183105 -2.27051 0.684656 -0.0752763 9.79667
ODOM 725.876 0 0
ODOM 725.887 1 0
IMU 725.886 0.0915527 0.0183105 -2.28882 0.677487 -0.0824455 9.78951
ODOM 725.899 0 1
IMU 725.896 0.274658 0.15564 -2.38953 0.677487 -0.0752763 9.80026
ODOM 725.91 0 0
IMU 725.906 0.0549316 0.201416 -2.46277 0.677487 -0.0860301 9.78592
IMU 725.916 0.137329 0.219727 -2.54517 0.702579 -0.0681071 9.78951
ODOM 725.92 0 0
IMU 725.926 0.0732422 0.15564 -2.55432 0.716917 -0.0788609 9.78234
ODOM 725.931 0 0
IMU 725.936 0.100708 0.219727 -2.64587 0.73484 -0.0645225 9.80743
ODOM 725.942 1 1
IMU 725.946 0.17395 0.137329 -2.74658 0.720502 -0.0752763 9.79667
IMU 725.956 0.128174 0.128174 -2.75574 0.716917 -0.0824455 9.77875
ODOM 725.953 0 0
IMU 725.966 0.192261 0.238037 -2.84729 0.720502 -0.0824455 9.77158
ODOM 725.964 0 0
IMU 725.976 0.219727 0.210571 -2.93884 0.73484 -0.0931992 9.77158
ODOM 725.975 0 0
IMU 725.986 0.17395 -0.0732422 -3.02124 0.745594 -0.0788609 9.80026
ODOM 725.985 0 0
IMU 725.996 0.0915527 0.164795 -3.06702 0.777855 -0.111122 9.78234
ODOM 725.996 0 1
ODOM 726.007 1 0
IMU 726.009 0.0549316 0.137329 -3.19519 0.756348 -0.0824455 9.78234
IMU 726.016 0.219727 0.210571 -3.16772 0.777855 -0.136214 9.79667
ODOM 726.018 0 0
IMU 726.026 0.109863 0.192261 -3.22266 0.777855 -0.107538 9.768
ODOM 726.029 0 0
IMU 726.036 0.0366211 0.128174 -3.27759 0.763517 -0.150553 9.78234
ODOM 726.039 0 1
IMU 726.046 0.137329 0.0823975 -3.34167 0.824455 -0.121876 9.79667
ODOM 726.05 0 0
ODOM 726.061 1 0
IMU 726.056 0.0915527 0.292969 -3.43323 0.824455 -0.136214 9.77875
IMU 726.066 0.00915527 0.0732422 -3.38745 0.824455 -0.17206 9.78592
ODOM 726.072 0 1
IMU 726.076 0.0549316 0.238037 -3.45154 0.835209 -0.143383 9.78234
ODOM 726.083 0 0
IMU 726.086 0.0732422 0.0823975 -3.51562 0.806532 -0.164891 9.76083
ODOM 726.094 0 0
IMU 726.096 0.0823975 0.109863 -3.51562 0.842378 -0.168476 9.79667
ODOM 726.104 1 0
ODOM 726.115 0 1
IMU 726.108 0.00915527 0.238037 -3.57971 0.863885 -0.154137 9.77517
IMU 726.116 -0.128174 0.100708 -3.54309 0.863885 -0.164891 9.79667
ODOM 726.126 0 0
IMU 726.126 -0.0457764 0.100708 -3.68958 0.86747 -0.157722 9.77517
ODOM 726.137 0 0
IMU 726.136 -0.119019 0.15564 -3.68042 0.874639 -0.146968 9.77875
IMU 726.146 -0.0549316 0.0915527 -3.69873 0.849547 -0.136214 9.77875
ODOM 726.148 1 0
IMU 726.156 -0.0732422 0.00915527 -3.79028 0.86747 -0.139799 9.768
ODOM 726.158 0 1
IMU 726.166 -0.0274658 0.238037 -3.81775 0.874639 -0.136214 9.77875
ODOM 726.169 0 0
IMU 726.176 -0.0823975 0.0366211 -3.9093 0.931992 -0.129045 9.79309
ODOM 726.18 0 0
IMU 726.186 -0.15564 0.0915527 -3.9917 0.896147 -0.0931992 9.75724
ODOM 726.191 0 1
IMU 726.196 -0.137329 0.0732422 -4.11072 0.903316 -0.125461 9.78592
ODOM 726.202 1 0
IMU 726.206 0.0274658 0.183105 -4.10156 0.910485 -0.0788609 9.77517
ODOM 726.213 0 0
IMU 726.216 0.00915527 0.137329 -4.19312 0.914069 -0.0967838 9.76441
ODOM 726.223 1 1
IMU 726.226 0.0915527 0.183105 -4.21143 0.939162 -0.0824455 9.77875
ODOM 726.234 0 0
IMU 726.238 0.119019 0.183105 -4.30298 0.949915 -0.0752763 9.77517
ODOM 726.245 0 0
IMU 726.246 0.146484 0.201416 -4.36707 0.931992 -0.0752763 9.79309
ODOM 726.256 0 1
IMU 726.256 0.17395 0.146484 -4.45862 0.939162 -0.0752763 9.78951
ODOM 726.267 1 0
IMU 726.266 0.265503 0.0915527 -4.46777 0.935577 -0.0752763 9.77875
ODOM 726.278 0 0
IMU 726.279 0.228882 0.302124 -4.65088 0.946331 -0.0752763 9.81818
ODOM 726.288 0 1
IMU 726.286 0.0823975 0.109863 -4.73328 0.964254 -0.0465996 9.80384
ODOM 726.299 0 0
IMU 726.296 0.256348 0.109863 -4.81567 0.960669 -0.0716917 9.8146
IMU 726.306 0.15564 0.0549316 -4.85229 0.946331 -0.0716917 9.79667
ODOM 726.31 1 0
IMU 726.316 0.292969 0.100708 -4.98047 0.931992 -0.0824455 9.8146
IMU 726.326 0.164795 0.0823975 -4.96216 0.896147 -0.0896147 9.83969
ODOM 726.321 0 1
ODOM 726.332 1 0
IMU 726.336 0.247192 0.164795 -5.13611 0.892562 -0.0824455 9.81101
IMU 726.346 0.3479 0.137329 -5.19104 0.856716 -0.107538 9.82535
ODOM 726.343 0 1
IMU 726.356 0.228882 0.109863 -5.3009 0.86747 -0.136214 9.84686
ODOM 726.353 0 0
ODOM 726.364 0 1
ODOM 726.375 1 0
IMU 726.37 0.366211 0 -5.43823 0.838793 -0.103953 9.82535
IMU 726.376 0.228882 0.0183105 -5.45654 0.810116 -0.182814 9.85761
ODOM 726.386 0 0
IMU 726.386 0.265503 0 -5.68542 0.806532 -0.118291 9.85044
ODOM 726.397 0 1
IMU 726.396 0.119019 -0.100708 -5.5481 0.777855 -0.200737 9.83252
IMU 726.406 0.320435 -0.128174 -5.67627 0.799363 -0.161306 9.85403
ODOM 726.407 1 0
IMU 726.416 0.238037 -0.0366211 -5.72205 0.767101 -0.197152 9.81818
ODOM 726.418 0 0
IMU 726.426 0.228882 -0.183105 -5.84106 0.73484 -0.193568 9.82535
ODOM 726.429 0 1
IMU 726.437 0.292969 -0.0915527 -5.8136 0.738425 -0.204321 9.84686
ODOM 726.44 1 0
IMU 726.446 0.210571 -0.201416 -5.95093 0.727671 -0.211491 9.8361
ODOM 726.451 0 1
IMU 726.456 0.32959 -0.210571 -5.9967 0.713333 -0.21866 9.79667
ODOM 726.462 1 0
IMU 726.466 0.100708 -0.265503 -6.10657 0.716917 -0.243752 9.77875
IMU 726.476 0.164795 -0.274658 -6.06995 0.706163 -0.236583 9.80026
ODOM 726.472 0 1
ODOM 726.483 0 0
IMU 726.487 0.0457764 -0.238037 -6.14319 0.688241 -0.254506 9.77517
ODOM 726.494 1 1
IMU 726.499 0.0457764 -0.0823975 -6.27136 0.666733 -0.243752 9.77158
ODOM 726.505 0 0
IMU 726.507 -0.0640869 -0.274658 -6.17065 0.659564 -0.25809 9.768
IMU 726.516 -0.0183105 -0.128174 -6.30798 0.641641 -0.261675 9.77158
ODOM 726.516 0 1
ODOM 726.526 1 0
IMU 726.526 0 -0.183105 -6.37207 0.652395 -0.236583 9.76083
ODOM 726.537 0 0
IMU 726.536 -0.0274658 -0.192261 -6.35376 0.638056 -0.261675 9.80026
ODOM 726.548 0 1
IMU 726.546 -0.100708 -0.0640869 -6.50024 0.64881 -0.236583 9.73574
IMU 726.556 -0.0915527 -0.128174 -6.58264 0.620133 -0.250921 9.75724
ODOM 726.559 1 0
ODOM 726.57 0 1
IMU 726.566 -0.0823975 -0.17395 -6.63757 0.595041 -0.215075 9.77875
IMU 726.576 -0.137329 -0.109863 -6.67419 0.580703 -0.222244 9.74649
ODOM 726.58 0 0
IMU 726.586 -0.100708 -0.0823975 -6.74744 0.595041 -0.207906 9.76441
ODOM 726.591 1 1
IMU 726.596 -0.192261 -0.0366211 -6.80237 0.60938 -0.207906 9.75724
ODOM 726.602 0 0
IMU 726.606 -0.164795 -0.109863 -6.87561 0.587872 -0.200737 9.74291
ODOM 726.613 1 1
IMU 726.617 -0.137329 -0.15564 -6.81152 0.584288 -0.154137 9.78234
ODOM 726.624 0 0
IMU 726.629 -0.183105 -0.0274658 -6.98547 0.56278 -0.182814 9.75366
IMU 726.636 -0.192261 -0.0274658 -7.04041 0.555611 -0.164891 9.77517
ODOM 726.635 0 1
IMU 726.646 -0.146484 0.00915527 -7.10449 0.580703 -0.186398 9.78234
ODOM 726.646 1 0
IMU 726.657 -0.247192 -0.0915527 -7.21436 0.566365 -0.161306 9.77158
ODOM 726.656 0 1
IMU 726.666 -0.183105 -0.0823975 -7.19604 0.544857 -0.179229 9.77158
ODOM 726.667 1 0
IMU 726.676 -0.320435 -0.0366211 -7.2876 0.552026 -0.154137 9.77875
ODOM 726.678 0 1
IMU 726.686 -0.201416 -0.0823975 -7.36084 0.537688 -0.17206 9.78592
ODOM 726.689 0 0
ODOM 726.7 1 1
IMU 726.696 -0.210571 -0.0366211 -7.46155 0.541273 -0.182814 9.78592
IMU 726.706 -0.0915527 -0.100708 -7.62634 0.548442 -0.164891 9.76441
ODOM 726.71 0 0
IMU 726.718 -0.320435 -0.0915527 -7.5531 0.559195 -0.207906 9.77875
ODOM 726.721 1 1
IMU 726.726 -0.137329 0.0274658 -7.64465 0.534103 -0.175645 9.80743
ODOM 726.732 0 0
IMU 726.736 -0.201416 -0.00915527 -7.53479 0.512596 -0.197152 9.78592
ODOM 726.743 1 1
IMU 726.746 -0.128174 -0.0183105 -7.73621 0.509011 -0.200737 9.79309
ODOM 726.754 0 0
IMU 726.756 -0.201416 -0.0274658 -7.72705 0.519765 -0.236583 9.75366
ODOM 726.765 0 1
IMU 726.766 -0.192261 -0.0640869 -7.77283 0.512596 -0.211491 9.79667
ODOM 726.775 1 0
IMU 726.776 -0.137329 0.0549316 -7.85522 0.509011 -0.236583 9.78951
ODOM 726.786 0 1
IMU 726.786 -0.274658 -0.119019 -7.77283 0.494673 -0.222244 9.76441
ODOM 726.797 0 0
IMU 726.796 -0.0823975 -0.0457764 -7.82776 0.462412 -0.243752 9.82535
ODOM 726.808 1 1
IMU 726.806 -0.228882 -0.0457764 -7.82776 0.473165 -0.215075 9.77158
ODOM 726.819 0 0
IMU 726.819 -0.256348 -0.0274658 -7.9834 0.458827 -0.225829 9.77517
IMU 726.827 -0.164795 0.0366211 -7.901 0.462412 -0.215075 9.79667
ODOM 726.83 1 1
IMU 726.836 -0.183105 0.0823975 -8.02002 0.47675 -0.225829 9.79667
ODOM 726.84 0 0
IMU 726.846 -0.100708 0 -7.96509 0.448073 -0.215075 9.79667
ODOM 726.851 0 1
IMU 726.856 -0.238037 -0.128174 -8.03833 0.444489 -0.250921 9.78592
ODOM 726.862 1 1
IMU 726.867 -0.265503 0.0549316 -8.11157 0.448073 -0.200737 9.77875
ODOM 726.873 1 0
IMU 726.876 -0.119019 0.0640869 -8.22144 0.426566 -0.200737 9.74649
ODOM 726.884 0 1
IMU 726.886 -0.228882 -0.0549316 -8.20312 0.455242 -0.21866 9.80026
IMU 726.896 -0.17395 -0.137329 -8.25806 0.440904 -0.222244 9.78234
ODOM 726.895 0 0
IMU 726.906 -0.238037 -0.128174 -8.29468 0.426566 -0.215075 9.73574
ODOM 726.905 1 1
IMU 726.916 -0.274658 -0.00915527 -8.34961 0.422981 -0.21866 9.768
ODOM 726.916 0 0
ODOM 726.927 1 1
IMU 726.931 -0.137329 -0.0549316 -8.40454 0.419397 -0.225829 9.76083
ODOM 726.938 0 0
IMU 726.936 -0.100708 0.0823975 -8.45032 0.433735 -0.200737 9.76083
IMU 726.946 -0.228882 -0.0549316 -8.34961 0.426566 -0.229414 9.75007
ODOM 726.949 0 1
IMU 726.957 -0.119019 0.0549316 -8.53271 0.451658 -0.21866 9.75724
ODOM 726.959 1 1
IMU 726.966 -0.0457764 0.00915527 -8.50525 0.412227 -0.21866 9.74649
ODOM 726.97 0 0
ODOM 726.981 1 1
IMU 726.976 -0.0183105 -0.0366211 -8.61511 0.415812 -0.243752 9.78951
IMU 726.986 -0.119019 0 -8.52356 0.408643 -0.225829 9.76083
ODOM 726.992 1 1
IMU 726.996 -0.0366211 0.0274658 -8.62427 0.43732 -0.247336 9.74291
ODOM 727.003 0 0
IMU 727.007 -0.0274658 -0.0732422 -8.60596 0.408643 -0.222244 9.75007
ODOM 727.014 0 1
ODOM 727.024 1 0
IMU 727.018 0.0549316 0.00915527 -8.67004 0.405058 -0.243752 9.78234
IMU 727.026 0.0732422 0.0366211 -8.65173 0.39072 -0.247336 9.74649
ODOM 727.035 0 1
IMU 727.036 -0.15564 -0.0640869 -8.7616 0.376382 -0.268844 9.76441
IMU 727.046 -0.119019 -0.0915527 -8.77991 0.379966 -0.240167 9.73574
ODOM 727.046 1 0
IMU 727.056 -0.119019 0.0183105 -8.77075 0.39072 -0.261675 9.768
ODOM 727.057 0 1
IMU 727.066 -0.128174 -0.0274658 -8.73413 0.372797 -0.250921 9.76441
ODOM 727.068 1 0
IMU 727.076 -0.0549316 0.210571 -8.83484 0.365628 -0.236583 9.78951
ODOM 727.078 0 1
IMU 727.086 -0.128174 0.0549316 -8.8623 0.383551 -0.250921 9.78234
ODOM 727.089 0 0
IMU 727.096 -0.192261 0.128174 -8.9447 0.351289 -0.243752 9.76083
ODOM 727.1 1 1
IMU 727.106 -0.302124 -0.0183105 -8.87146 0.362043 -0.236583 9.76441
ODOM 727.111 0 1
IMU 727.116 -0.109863 0.128174 -8.88062 0.340536 -0.261675 9.75007
IMU 727.126 -0.128174 0.100708 -8.90808 0.333367 -0.236583 9.78951
ODOM 727.122 1 1
ODOM 727.133 1 0
IMU 727.137 -0.183105 0.228882 -8.9447 0.358459 -0.276013 9.8361
IMU 727.147 -0.17395 0.146484 -8.98132 0.340536 -0.247336 9.76441
ODOM 727.143 0 1
ODOM 727.154 0 0
IMU 727.158 -0.164795 -0.0457764 -9.03625 0.322613 -0.211491 9.81101
IMU 727.166 -0.210571 0.201416 -9.05457 0.333367 -0.276013 9.80384
ODOM 727.165 1 1
IMU 727.176 -0.256348 0.183105 -9.11865 0.347705 -0.204321 9.76441
ODOM 727.176 0 0
ODOM 727.187 1 1
IMU 727.186 -0.17395 0.17395 -9.12781 0.319028 -0.207906 9.82535
IMU 727.196 -0.192261 0.0915527 -9.19189 0.340536 -0.207906 9.78951
ODOM 727.197 0 1
ODOM 727.208 1 0
IMU 727.206 -0.183105 0.109863 -9.26514 0.340536 -0.211491 9.78592
IMU 727.216 -0.274658 0.0366211 -9.34753 0.336951 -0.236583 9.85044
ODOM 727.219 0 1
IMU 727.226 -0.210571 0.0915527 -9.36584 0.326197 -0.200737 9.78951
ODOM 727.23 0 0
IMU 727.236 -0.0640869 0.0915527 -9.42078 0.315444 -0.200737 9.78592
ODOM 727.241 1 1
ODOM 727.252 1 1
IMU 727.246 0.0366211 0.146484 -9.42993 0.336951 -0.200737 9.8361
ODOM 727.262 0 1
IMU 727.256 0.183105 0.0183105 -9.52148 0.362043 -0.215075 9.78592
IMU 727.266 0.0640869 0.100708 -9.53064 0.311859 -0.21866 9.80384
IMU 727.276 -0.00915527 0.192261 -9.57642 0.311859 -0.232998 9.82177
ODOM 727.273 1 0
IMU 727.286 0.0183105 0 -9.60388 0.315444 -0.204321 9.72857
ODOM 727.284 0 1
IMU 727.296 0.146484 0.15564 -9.64966 0.319028 -0.250921 9.82177
ODOM 727.295 1 0
IMU 727.306 0.119019 0.137329 -9.63135 0.319028 -0.236583 9.76441
ODOM 727.306 0 1
IMU 727.316 0.201416 0.192261 -9.82361 0.340536 -0.268844 9.77158
ODOM 727.316 0 0
IMU 727.326 0.210571 0.0823975 -9.75952 0.30469 -0.283182 9.84327
ODOM 727.327 1 1
ODOM 727.338 0 1
IMU 727.336 0.265503 0.15564 -9.86023 0.290351 -0.250921 9.73932
IMU 727.347 0.219727 0.0640869 -9.76868 0.268844 -0.286767 9.79309
ODOM 727.349 1 0
IMU 727.356 0.256348 0.0549316 -9.79614 0.290351 -0.268844 9.79667
ODOM 727.36 0 1
IMU 727.366 0.0640869 0.100708 -9.94263 0.286767 -0.250921 9.77158
ODOM 727.371 1 0
IMU 727.376 0.0366211 0.192261 -9.97925 0.290351 -0.322613 9.84327
ODOM 727.381 1 1
IMU 727.387 0.0274658 0.17395 -10.0067 0.265259 -0.25809 9.78951
ODOM 727.392 0 1
IMU 727.397 0.0366211 0.164795 -9.93347 0.265259 -0.326197 9.80384
ODOM 727.403 1 1
IMU 727.406 0.0640869 0.146484 -9.9884 0.265259 -0.268844 9.80026
ODOM 727.414 0 0
IMU 727.418 0.00915527 0.00915527 -9.97009 0.265259 -0.283182 9.78951
ODOM 727.425 1 1
IMU 727.426 -0.0366211 0.137329 -10.0983 0.254506 -0.30469 9.82177
ODOM 727.435 0 0
IMU 727.436 0.0183105 0.109863 -10.1349 0.283182 -0.279598 9.80743
ODOM 727.446 0 1
IMU 727.446 0.00915527 0.109863 -10.1349 0.254506 -0.272429 9.79309
ODOM 727.457 1 1
IMU 727.456 0 0.100708 -10.199 0.268844 -0.319028 9.76441
ODOM 727.468 0 0
IMU 727.468 -0.0549316 0.100708 -10.1898 0.243752 -0.254506 9.80026
IMU 727.476 -0.0640869 0.15564 -10.2905 0.25809 -0.30469 9.79667
ODOM 727.479 1 1
IMU 727.486 -0.0274658 0.17395 -10.2814 0.293936 -0.261675 9.77158
ODOM 727.489 0 0
IMU 727.498 -0.00915527 0.17395 -10.4462 0.268844 -0.240167 9.80384
ODOM 727.5 1 1
IMU 727.506 0 0.183105 -10.4004 0.276013 -0.283182 9.76441
ODOM 727.511 0 1
IMU 727.516 0.0549316 0.0457764 -10.5011 0.272429 -0.229414 9.768
ODOM 727.522 1 1
IMU 727.527 -0.0640869 0.17395 -10.6018 0.290351 -0.30469 9.78951
ODOM 727.533 1 0
IMU 727.537 0.0549316 0.0915527 -10.6842 0.286767 -0.283182 9.74291
ODOM 727.544 0 1
IMU 727.546 -0.0183105 0 -10.7941 0.272429 -0.215075 9.80026
ODOM 727.554 0 1
IMU 727.556 0.0549316 0.00915527 -10.7208 0.279598 -0.297521 9.76441
ODOM 727.565 1 0
IMU 727.566 0.0457764 0.15564 -10.7758 0.30469 -0.189983 9.75724
ODOM 727.576 0 1
IMU 727.578 0.0915527 0.119019 -10.8215 0.283182 -0.276013 9.83969
ODOM 727.587 1 0
IMU 727.586 0.283813 0.192261 -10.9314 0.322613 -0.240167 9.75724
ODOM 727.598 0 1
IMU 727.596 0.0549316 0 -10.9314 0.290351 -0.247336 9.76083
ODOM 727.608 1 1
IMU 727.606 0.32959 0.0640869 -10.968 0.301105 -0.25809 9.77517
ODOM 727.619 0 0
IMU 727.616 0.192261 0.00915527 -11.0413 0.311859 -0.207906 9.75007
ODOM 727.63 1 1
IMU 727.626 0.448608 -0.0640869 -11.142 0.290351 -0.240167 9.80743
IMU 727.636 0.375366 -0.0549316 -11.2427 0.311859 -0.222244 9.768
ODOM 727.641 0 1
IMU 727.646 0.302124 0.0640869 -11.2335 0.272429 -0.272429 9.7214
ODOM 727.652 1 1
IMU 727.657 0.549316 -0.0183105 -11.2976 0.30469 -0.232998 9.77875
IMU 727.667 0.219727 -0.137329 -11.38 0.276013 -0.283182 9.75007
ODOM 727.663 1 0
ODOM 727.673 0 1
ODOM 727.684 1 1
ODOM 727.695 0 0
IMU 727.692 0.466919 -0.0732422 -11.4258 0.279598 -0.229414 9.82177
IMU 727.692 0.3479 -0.119019 -11.4441 0.290351 -0.293936 9.77875
IMU 727.696 0.366211 -0.100708 -11.5448 0.265259 -0.301105 9.77158
IMU 727.706 0.531006 0.00915527 -11.5265 0.254506 -0.276013 9.77517
ODOM 727.706 0 1
IMU 727.716 0.338745 -0.119019 -11.499 0.229414 -0.319028 9.76441
ODOM 727.717 1 0
IMU 727.726 0.430298 -0.0457764 -11.5814 0.229414 -0.290351 9.80026
ODOM 727.728 0 1
IMU 727.74 0.357056 -0.0732422 -11.6272 0.247336 -0.365628 9.81818
ODOM 727.738 1 1
IMU 727.746 0.430298 -0.0366211 -11.6638 0.229414 -0.319028 9.81818
ODOM 727.749 0 0
IMU 727.756 0.311279 -0.0457764 -11.7188 0.232998 -0.340536 9.80384
ODOM 727.76 1 1
IMU 727.766 0.430298 -0.0640869 -11.7004 0.193568 -0.365628 9.79309
ODOM 727.771 0 1
IMU 727.776 0.338745 -0.119019 -11.8561 0.204321 -0.336951 9.77875
ODOM 727.782 1 1
ODOM 727.793 1 0
IMU 727.786 0.357056 -0.15564 -11.8103 0.197152 -0.362043 9.87554
IMU 727.797 0.375366 -0.00915527 -11.8195 0.215075 -0.372797 9.82177
ODOM 727.803 0 1
ODOM 727.814 1 1
IMU 727.808 0.3479 -0.0915527 -11.8927 0.200737 -0.319028 9.82894
IMU 727.816 0.375366 -0.0823975 -11.9659 0.200737 -0.397889 9.80743
IMU 727.826 0.357056 -0.119019 -12.0392 0.197152 -0.322613 9.77517
ODOM 727.825 0 0
IMU 727.836 0.384521 -0.0549316 -12.149 0.211491 -0.358459 9.8827
ODOM 727.836 1 1
ODOM 727.847 0 1
IMU 727.847 0.375366 -0.0549316 -12.1765 0.229414 -0.329782 9.78951
IMU 727.856 0.421143 -0.192261 -12.204 0.200737 -0.336951 9.85044
ODOM 727.857 1 0
IMU 727.866 0.494385 -0.183105 -12.3413 0.200737 -0.308274 9.85761
ODOM 727.868 0 1
IMU 727.876 0.448608 -0.228882 -12.3688 0.211491 -0.34412 9.80026
ODOM 727.879 0 1
IMU 727.886 0.439453 -0.238037 -12.4969 0.182814 -0.322613 9.85044
ODOM 727.89 1 0
ODOM 727.901 0 1
IMU 727.896 0.32959 -0.238037 -12.5885 0.186398 -0.340536 9.80026
ODOM 727.912 1 1
IMU 727.906 0.457764 -0.146484 -12.5885 0.179229 -0.329782 9.81818
IMU 727.916 0.631714 -0.247192 -12.735 0.179229 -0.333367 9.8361
IMU 727.926 0.366211 -0.265503 -12.8265 0.179229 -0.333367 9.81101
ODOM 727.922 1 1
IMU 727.936 0.466919 -0.201416 -12.8357 0.150553 -0.329782 9.80384
ODOM 727.933 0 0
IMU 727.946 0.558472 -0.201416 -12.8815 0.179229 -0.301105 9.79309
ODOM 727.944 1 1
IMU 727.956 0.32959 -0.219727 -13.0371 0.157722 -0.351289 9.78592
ODOM 727.955 0 1
ODOM 727.966 1 0
IMU 727.966 0.448608 -0.201416 -13.0829 0.186398 -0.279598 9.82177
