IMU 720747 -0.613403 -0.201416 -0.0732422 0.0215075 -0.150553 -9.66763
IMU 720759 -0.741577 0 -0.0183105 0.0465996 -0.13263 -9.68555
ODOM 720760 40529 40752
IMU 720767 -0.622559 0.00915527 -0.0274658 0.0501842 -0.154137 -9.61744
ODOM 720771 40529 40752
IMU 720777 -0.714111 0.0823975 0 0.0860301 -0.121876 -9.72857
ODOM 720782 40529 40752
IMU 720787 -0.732422 0.146484 0.0183105 0.0716917 -0.0967838 -9.83969
ODOM 720792 40529 40752
IMU 720798 -0.531006 0.0640869 0.00915527 0.0681071 -0.0967838 -9.90063
ODOM 720803 40529 40752
IMU 720807 -0.521851 -0.0183105 0.0732422 0.0752763 -0.0716917 -9.85403
ODOM 720814 40529 40752
IMU 720817 -0.366211 0.0732422 0.0457764 0.0788609 -0.0250921 -9.73574
ODOM 720825 40529 40752
IMU 720827 -0.3479 0.0549316 0.0732422 0.0931992 0.0107538 -9.80743
ODOM 720836 40529 40752
IMU 720837 -0.0274658 0.0183105 0.146484 0.100368 0 -9.93289
ODOM 720847 40529 40752
IMU 720847 -0.0915527 0.0823975 0.137329 0.100368 0.060938 -9.93289
ODOM 720858 40529 40752
IMU 720859 0.0640869 0.0549316 0.109863 0.0860301 0.0573534 -9.96873
ODOM 720868 40529 40752
IMU 720873 -0.0823975 -0.00915527 0.0366211 0.0752763 0.0896147 -9.92572
IMU 720877 0.00915527 -0.0457764 0 0.0645225 0.100368 -9.8827
ODOM 720879 40529 40752
ODOM 720890 40529 40752
IMU 720887 0.219727 -0.0366211 0.0732422 0.0501842 0.136214 -9.8612
IMU 720897 0.164795 0.00915527 -0.0366211 0.111122 0.121876 -9.85761
ODOM 720901 40529 40752
ODOM 720911 40529 40752
IMU 720907 0.119019 -0.109863 0 0.0322613 0.118291 -9.99741
IMU 720917 0.128174 0 0.0274658 0.0465996 0.111122 -9.99741
ODOM 720922 40529 40752
ODOM 720933 40529 40752
IMU 720927 0.0915527 -0.247192 -0.0457764 0.0358459 0.103953 -9.88987
IMU 720938 0.0915527 -0.137329 0 0.0107538 0.0681071 -9.82894
IMU 720947 0.0274658 0.0274658 0 0 0.0358459 -9.76083
ODOM 720944 40529 40752
ODOM 720955 40529 40752
ODOM 720966 40529 40752
IMU 720961 0.0366211 -0.0640869 -0.0457764 0.0107538 0.043015 -9.79309
IMU 720967 0.0823975 0 -0.0457764 -0.0179229 0 -9.94364
ODOM 720976 40529 40752
IMU 720984 0 -0.0274658 -0.0457764 -0.0143383 -0.043015 -9.8827
IMU 720987 0.0366211 -0.164795 -0.119019 -0.0537688 -0.0286767 -9.75366
IMU 720997 0.15564 -0.137329 0.0274658 -0.0645225 -0.107538 -9.72498
IMU 721007 0.183105 0 -0.0274658 -0.0788609 -0.0860301 -9.79309
IMU 721017 0.238037 -0.0366211 -0.0457764 -0.0681071 -0.13263 -9.82894
ODOM 721020 40529 40752
ODOM 721030 40529 40752
IMU 721027 0.164795 -0.164795 -0.0366211 -0.0967838 -0.0860301 -9.77875
IMU 721037 0.238037 -0.0823975 -0.0640869 -0.0681071 -0.136214 -9.79667
ODOM 721041 40529 40752
IMU 721047 0.375366 -0.128174 0.0640869 -0.13263 -0.13263 -9.8612
ODOM 721052 40529 40752
IMU 721057 0.146484 0.0183105 -0.0183105 -0.0860301 -0.157722 -9.77875
ODOM 721063 40529 40752
IMU 721069 0.402832 -0.119019 -0.0457764 -0.0931992 -0.107538 -9.71781
ODOM 721074 40529 40752
IMU 721080 0.302124 -0.0366211 0.0732422 -0.0716917 -0.107538 -9.80743
ODOM 721084 40529 40752
IMU 721091 0.494385 -0.0549316 -0.0274658 -0.0967838 -0.0860301 -9.84327
IMU 721097 0.274658 -0.0274658 0.0183105 -0.0322613 -0.103953 -9.81101
ODOM 721095 40529 40752
ODOM 721106 40529 40752
IMU 721107 0.311279 -0.0457764 0.0640869 -0.0681071 -0.0716917 -9.80026
IMU 721117 0.0915527 -0.0183105 0.0366211 -0.043015 -0.0788609 -9.8146
ODOM 721117 40529 40752
IMU 721127 0.0549316 0.0274658 -0.0274658 -0.0215075 -0.0465996 -9.79309
ODOM 721128 40529 40752
IMU 721137 -0.00915527 0 -0.00915527 0.00358459 -0.0501842 -9.74291
ODOM 721139 40529 40752
IMU 721147 -0.0640869 0.0640869 0.0183105 0.00716917 -0.043015 -9.78592
ODOM 721149 40529 40752
ODOM 721160 40529 40752
IMU 721157 -0.274658 0.119019 0.0457764 0.0537688 -0.0358459 -9.84327
IMU 721167 -0.119019 0 -0.00915527 0.0358459 -0.0394304 -9.81818
ODOM 721171 40529 40752
IMU 721177 -0.0549316 0 -0.0549316 0.0537688 -0.0322613 -9.76083
ODOM 721182 40529 40752
IMU 721187 -0.265503 0 0 0.0896147 -0.0286767 -9.75366
IMU 721197 -0.375366 0.0640869 -0.0366211 0.111122 -0.0358459 -9.81818
ODOM 721193 40529 40752
IMU 721207 -0.32959 -0.0915527 0.0915527 0.114707 -0.0358459 -9.81101
ODOM 721203 40529 40752
IMU 721217 -0.283813 0.00915527 0 0.139799 -0.0573534 -9.80384
ODOM 721214 40529 40752
IMU 721227 -0.256348 0 0.0274658 0.114707 -0.043015 -9.78234
ODOM 721225 40529 40752
IMU 721237 -0.292969 -0.0640869 0.0549316 0.121876 -0.0465996 -9.80026
ODOM 721236 40529 40752
IMU 721247 -0.100708 -0.109863 0.0274658 0.121876 -0.0394304 -9.77875
ODOM 721247 40529 40752
IMU 721257 -0.146484 -0.0457764 0.0915527 0.129045 -0.0465996 -9.77517
ODOM 721258 40529 40752
IMU 721267 -0.0366211 0.0457764 -0.00915527 0.0931992 -0.0322613 -9.73932
ODOM 721268 40529 40752
ODOM 721279 40529 40752
IMU 721277 0.0732422 -0.0915527 -0.0457764 0.107538 -0.0107538 -9.73574
IMU 721288 0.146484 -0.0549316 0 0.0537688 -0.00358459 -9.75366
ODOM 721290 40529 40752
IMU 721297 0.0366211 -0.119019 -0.0366211 0.0465996 -0.0358459 -9.77517
ODOM 721301 40529 40752
IMU 721307 0.0640869 -0.0457764 -0.00915527 0.0394304 0.00358459 -9.74291
ODOM 721312 40529 40752
ODOM 721322 40529 40752
IMU 721317 0.228882 -0.109863 0 0.0250921 -0.0143383 -9.72498
IMU 721327 0.183105 -0.00915527 -0.109863 0.0537688 -0.00358459 -9.73574
ODOM 721333 40529 40752
IMU 721339 0.0549316 -0.0366211 -0.0823975 -0.0824455 -0.0322613 -9.86478
ODOM 721344 40529 40752
IMU 721349 0.146484 0.119019 -0.0366211 0.0573534 -0.0250921 -9.71064
ODOM 721355 40529 40752
IMU 721360 0.119019 -0.219727 -0.0183105 -0.043015 -0.0358459 -9.73932
ODOM 721366 40529 40752
IMU 721367 -0.0274658 0 -0.119019 -0.0179229 -0.043015 -9.86837
ODOM 721377 40529 40752
IMU 721377 0.137329 0 0.0183105 -0.00358459 -0.0322613 -9.81101
ODOM 721387 40529 40752
IMU 721387 0.109863 -0.00915527 -0.0183105 0 -0.0286767 -9.8146
IMU 721397 -0.0732422 -0.0366211 0.00915527 -0.0394304 -0.060938 -9.76083
ODOM 721398 40529 40752
ODOM 721409 40529 40752
IMU 721409 0 0.137329 -0.00915527 -0.0358459 -0.0716917 -9.81101
IMU 721417 0.15564 0.128174 -0.00915527 -0.0286767 -0.0501842 -9.80026
ODOM 721420 40529 40752
IMU 721427 -0.0823975 -0.0183105 -0.0274658 -0.0179229 -0.0788609 -9.77517
ODOM 721431 40529 40752
IMU 721437 0 0.0183105 -0.00915527 0.00358459 -0.060938 -9.86837
ODOM 721441 40529 40752
IMU 721447 0.183105 0.0457764 0.0366211 -0.0107538 -0.0860301 -9.81818
ODOM 721452 40529 40752
IMU 721457 -0.0183105 0 0.0549316 0.00716917 -0.100368 -9.78234
ODOM 721463 40529 40752
IMU 721467 0.0640869 -0.0640869 0.0823975 0.0215075 -0.0537688 -9.83252
ODOM 721474 40529 40752
IMU 721478 0.0823975 0.0549316 0.0640869 0.0286767 -0.0896147 -9.78951
ODOM 721485 40529 40752
IMU 721491 0.109863 -0.137329 0 0.0358459 -0.060938 -9.84686
ODOM 721496 40529 40752
IMU 721497 0.0732422 0.0274658 0.164795 0.0465996 -0.0752763 -9.83252
ODOM 721506 40529 40752
IMU 721507 0.0732422 0.0549316 0.0823975 0.0286767 -0.0394304 -9.75366
ODOM 721517 40529 40752
IMU 721517 0.119019 -0.0549316 -0.0183105 0.043015 -0.060938 -9.82535
ODOM 721528 40529 40752
IMU 721527 0.0732422 0.0549316 0.100708 0.0143383 -0.043015 -9.81818
ODOM 721539 40529 40752
IMU 721537 -0.0183105 -0.0915527 -0.0183105 0.0358459 -0.0322613 -9.78951
IMU 721548 0.0732422 -0.109863 0.109863 0.0322613 -0.0394304 -9.76441
ODOM 721550 40529 40752
IMU 721557 0.0823975 0.0640869 0.0183105 0.0681071 -0.0537688 -9.80743
ODOM 721561 40529 40752
IMU 721567 -0.0732422 -0.119019 0.0183105 0.0286767 -0.0179229 -9.77875
ODOM 721571 40529 40752
IMU 721577 0.0183105 -0.00915527 -0.0549316 0.0215075 -0.0537688 -9.81101
ODOM 721582 40529 40752
IMU 721587 -0.0274658 -0.0549316 0.00915527 0.0215075 -0.0250921 -9.78951
ODOM 721593 40529 40752
IMU 721599 0.00915527 0.0183105 0.0183105 0.0107538 -0.060938 -9.77517
ODOM 721604 40529 40752
IMU 721607 0.0183105 -0.100708 -0.0732422 0.00716917 -0.0179229 -9.78951
ODOM 721615 40529 40752
IMU 721617 0.0366211 0 -0.0640869 0.0250921 -0.0573534 -9.8146
ODOM 721626 40529 40752
IMU 721627 0.0274658 0 -0.00915527 0 -0.0286767 -9.77875
ODOM 721636 40529 40752
IMU 721637 -0.0366211 0.100708 -0.0732422 0 -0.0824455 -9.78234
ODOM 721647 40529 40752
IMU 721647 0.119019 0.00915527 -0.0366211 -0.0286767 -0.043015 -9.81101
ODOM 721658 40529 40752
IMU 721657 0.0366211 -0.0823975 -0.0183105 -0.0107538 -0.0537688 -9.80743
ODOM 721669 40529 40752
IMU 721667 0.0274658 -0.119019 0.0457764 -0.0107538 -0.043015 -9.79309
ODOM 721680 40529 40752
IMU 721677 -0.100708 0.100708 -0.0274658 0.00358459 -0.0645225 -9.82535
IMU 721690 -0.0366211 -0.0366211 -0.00915527 -0.0358459 -0.043015 -9.80384
ODOM 721690 40529 40752
IMU 721697 -0.128174 -0.128174 0.0640869 -0.00716917 -0.060938 -9.81818
ODOM 721701 40529 40752
IMU 721707 -0.0183105 0.0732422 0.0549316 -0.0394304 -0.0358459 -9.77875
ODOM 721712 40529 40752
IMU 721718 -0.192261 0 0 -0.043015 -0.0501842 -9.78951
ODOM 721723 40529 40752
IMU 721728 -0.0183105 0.0549316 0.0457764 -0.0394304 -0.0250921 -9.80743
ODOM 721734 40529 40752
IMU 721740 0.100708 0.0640869 0.100708 -0.0250921 -0.043015 -9.77875
ODOM 721745 40529 40752
IMU 721749 -0.0457764 0.0457764 0.128174 -0.0322613 -0.0143383 -9.76083
ODOM 721755 40529 40752
IMU 721757 -0.0457764 0 0.0274658 -0.0179229 -0.0143383 -9.78592
ODOM 721766 40529 40752
IMU 721767 0 -0.0549316 0.0640869 -0.043015 -0.0107538 -9.73932
ODOM 721777 40529 40752
IMU 721777 -0.256348 0.0274658 0.0183105 -0.0179229 -0.0250921 -9.75007
IMU 721787 -0.100708 -0.0183105 -0.0366211 -0.00716917 -0.00716917 -9.75007
ODOM 721788 40529 40752
IMU 721797 -0.0732422 0 0.00915527 0 -0.0394304 -9.77875
ODOM 721799 40529 40752
IMU 721807 -0.119019 0.0457764 -0.0183105 0 -0.0143383 -9.75724
ODOM 721809 40529 40752
IMU 721817 -0.0549316 0.0366211 -0.0732422 0.0215075 -0.0322613 -9.74649
ODOM 721820 40529 40752
IMU 721827 0.0366211 0.0549316 -0.0915527 0.0250921 -0.0250921 -9.76083
ODOM 721831 40529 40752
IMU 721837 0.0274658 0.00915527 -0.0457764 0.0358459 -0.0573534 -9.75724
ODOM 721842 40529 40752
IMU 721847 -0.0274658 -0.0640869 -0.15564 0.0501842 -0.0179229 -9.76441
ODOM 721853 40529 40752
IMU 721857 -0.0274658 0.15564 -0.137329 0.0716917 -0.0501842 -9.77517
ODOM 721863 40529 40752
IMU 721868 0.164795 -0.100708 -0.0549316 0.0573534 -0.0215075 -9.768
ODOM 721874 40529 40752
IMU 721877 -0.0366211 0.0457764 -0.119019 0.0788609 -0.0537688 -9.78234
ODOM 721885 40529 40752
IMU 721887 0.00915527 0.128174 0.00915527 0.0645225 -0.0465996 -9.77875
ODOM 721896 40529 40752
IMU 721897 0 0.137329 -0.0274658 0.0788609 -0.0501842 -9.78951
ODOM 721907 40529 40752
IMU 721907 0.0732422 0.146484 -0.0183105 0.0824455 -0.0394304 -9.78234
ODOM 721918 40529 40752
IMU 721917 -0.00915527 0.0457764 0.0640869 0.121876 -0.043015 -9.8361
ODOM 721928 40529 40752
IMU 721927 0.0549316 -0.00915527 0.0183105 0.0824455 -0.0358459 -9.82894
ODOM 721939 40529 40752
IMU 721937 0 0.0640869 -0.0274658 0.0788609 -0.0465996 -9.82894
IMU 721947 -0.0183105 0.0549316 -0.00915527 0.0716917 -0.0179229 -9.82177
ODOM 721950 40529 40752
ODOM 721961 40529 40752
IMU 721957 0 0.0640869 0 0.0788609 -0.0537688 -9.84686
IMU 721968 0.15564 -0.00915527 0.109863 0.0537688 -0.0143383 -9.85044
ODOM 721972 40529 40752
ODOM 721982 40529 40752
IMU 721977 0.119019 -0.0366211 0.146484 0.0896147 -0.0501842 -9.85761
IMU 721991 0.146484 -0.0549316 0.0549316 0.0681071 -0.0250921 -9.82894
IMU 721997 0.00915527 0.0183105 -0.00915527 0.0537688 -0.0537688 -9.85044
ODOM 721993 40529 40752
IMU 722007 0.0366211 -0.0732422 -0.00915527 0.0358459 -0.0465996 -9.83252
ODOM 722004 40529 40752
IMU 722019 0.0457764 -0.0457764 0.0732422 0.0250921 -0.043015 -9.82894
IMU 722027 0.109863 -0.0915527 0.0732422 0.0322613 -0.0286767 -9.82177
IMU 722037 0.137329 -0.119019 -0.119019 0.0286767 -0.0394304 -9.82535
IMU 722047 0.247192 -0.15564 0 0.00716917 -0.0394304 -9.80743
ODOM 722047 40529 40752
IMU 722057 0.0457764 -0.128174 -0.0823975 -0.0143383 -0.0573534 -9.8146
ODOM 722058 40529 40752
IMU 722067 -0.0457764 -0.0549316 -0.0732422 -0.0537688 -0.0358459 -9.77517
ODOM 722069 40529 40752
IMU 722077 0.0183105 -0.0457764 -0.0915527 -0.043015 -0.0537688 -9.77517
ODOM 722079 40529 40752
IMU 722087 -0.0549316 -0.0915527 -0.0457764 -0.043015 -0.0465996 -9.77158
ODOM 722090 40529 40752
IMU 722097 -0.109863 -0.0915527 -0.119019 -0.0358459 -0.060938 -9.78234
ODOM 722101 40529 40752
IMU 722107 -0.119019 -0.137329 -0.0640869 -0.0860301 -0.0465996 -9.75007
ODOM 722112 40529 40752
IMU 722117 -0.0549316 -0.183105 -0.0183105 -0.0573534 -0.0931992 -9.75724
ODOM 722123 40529 40752
IMU 722127 -0.0183105 -0.0457764 0 -0.0752763 -0.0716917 -9.7214
ODOM 722133 40529 40752
IMU 722139 -0.164795 0.0183105 -0.0457764 -0.060938 -0.111122 -9.77875
ODOM 722144 40529 40752
IMU 722147 -0.109863 0 0.0915527 -0.0358459 -0.0788609 -9.75366
ODOM 722155 40529 40752
ODOM 722166 40529 40752
IMU 722157 -0.15564 0.0640869 0 -0.0358459 -0.114707 -9.76441
IMU 722170 -0.228882 0.0274658 -0.0274658 -0.0286767 -0.100368 -9.75007
IMU 722177 -0.201416 0.00915527 -0.00915527 -0.00716917 -0.100368 -9.75366
ODOM 722177 40529 40752
IMU 722187 -0.137329 -0.0274658 0.0274658 -0.0215075 -0.0537688 -9.76083
ODOM 722188 40529 40752
IMU 722197 -0.109863 -0.0183105 0.100708 0.00358459 -0.0465996 -9.77875
ODOM 722198 40529 40752
IMU 722207 -0.164795 0.0549316 0.0183105 0.0250921 -0.0394304 -9.78592
ODOM 722209 40529 40752
IMU 722217 -0.0640869 -0.0640869 0.0549316 0.0286767 -0.0286767 -9.79667
ODOM 722220 40529 40752
IMU 722227 -0.137329 0.0732422 0.0823975 0.0215075 0 -9.79667
ODOM 722231 40529 40752
IMU 722237 0.0640869 -0.109863 0.0274658 0.0322613 -0.00716917 -9.81101
ODOM 722242 40529 40752
IMU 722247 -0.137329 0.00915527 0.0183105 0.0250921 0.0250921 -9.8146
ODOM 722252 40529 40752
IMU 722258 -0.0457764 0.109863 0.0274658 0.0250921 0.0286767 -9.82177
ODOM 722263 40529 40752
ODOM 722274 40529 40752
IMU 722267 0.100708 0.137329 -0.0183105 0.0573534 0.0358459 -9.8146
IMU 722279 0.146484 0.119019 -0.0183105 0.0573534 0.0465996 -9.84686
ODOM 722285 40529 40752
IMU 722287 0.0366211 0 -0.0366211 0.0465996 0.0465996 -9.82535
ODOM 722296 40529 40752
IMU 722297 -0.0640869 0 -0.00915527 0.0394304 0.0286767 -9.82535
ODOM 722307 40529 40752
IMU 722307 0.0549316 0.100708 -0.0732422 0.0286767 0.0465996 -9.80743
ODOM 722317 40529 40752
IMU 722317 0.164795 0.109863 -0.0640869 0.043015 0 -9.80743
IMU 722327 0.0274658 -0.00915527 -0.0732422 0.0358459 0.0179229 -9.82894
ODOM 722328 40529 40752
IMU 722337 -0.00915527 -0.0823975 -0.146484 0.0501842 -0.0250921 -9.82535
ODOM 722339 40529 40752
IMU 722347 0.0549316 -0.0732422 -0.119019 0.0286767 -0.0250921 -9.78234
ODOM 722350 40529 40752
IMU 722357 0.100708 -0.0274658 -0.0366211 0.0322613 -0.0681071 -9.80026
ODOM 722361 40529 40752
IMU 722367 0.119019 -0.0549316 -0.0274658 0.00716917 -0.0501842 -9.78951
ODOM 722372 40529 40752
IMU 722377 0.0366211 0.00915527 -0.0183105 0.0322613 -0.0788609 -9.80384
ODOM 722383 40529 40752
IMU 722387 0.0457764 0.0457764 -0.0457764 0.0250921 -0.103953 -9.78592
ODOM 722393 40529 40752
IMU 722399 0.0823975 -0.0366211 0.0366211 0.043015 -0.118291 -9.78234
ODOM 722404 40529 40752
IMU 722407 -0.0732422 -0.109863 -0.0732422 0.0250921 -0.107538 -9.76441
ODOM 722415 40529 40752
IMU 722417 0.100708 -0.0183105 0.0640869 0.0143383 -0.125461 -9.77158
ODOM 722426 40529 40752
IMU 722427 0.0549316 -0.0549316 0.0823975 0.0107538 -0.0967838 -9.78592
ODOM 722437 40529 40752
IMU 722439 0 -0.00915527 0.0366211 0.0322613 -0.13263 -9.77158
ODOM 722448 40529 40752
IMU 722447 0.0274658 -0.100708 0.137329 0.0250921 -0.0931992 -9.75724
ODOM 722458 40529 40752
IMU 722457 0.0732422 -0.109863 0.0549316 0.0465996 -0.0860301 -9.77517
IMU 722467 0.146484 0.0366211 0.0823975 0.0179229 -0.0681071 -9.76083
ODOM 722469 40529 40752
ODOM 722480 40529 40752
IMU 722477 0.0732422 0.00915527 0.0732422 0.0143383 -0.060938 -9.768
ODOM 722491 40529 40752
IMU 722487 -0.0732422 -0.00915527 -0.0915527 -0.00358459 -0.0358459 -9.77158
IMU 722497 -0.0183105 0.0457764 0.0457764 0.00716917 -0.0322613 -9.78234
IMU 722507 0.0640869 -0.00915527 0.0915527 0.0143383 0.00358459 -9.78234
ODOM 722502 40529 40752
ODOM 722512 40529 40752
IMU 722517 -0.15564 0.100708 -0.0457764 0.0107538 -0.0286767 -9.80026
IMU 722528 -0.100708 0.0549316 -0.0732422 0 0.0107538 -9.77517
ODOM 722523 40529 40752
IMU 722538 -0.17395 0.0274658 -0.0823975 -0.00358459 -0.0215075 -9.78592
ODOM 722534 40529 40752
ODOM 722545 40529 40752
IMU 722550 0.0274658 -0.0457764 -0.0366211 -0.0107538 -0.00358459 -9.79667
IMU 722557 -0.0823975 -0.0549316 -0.0549316 -0.0143383 -0.0215075 -9.81101
ODOM 722556 40529 40752
IMU 722567 -0.0549316 0.137329 -0.0457764 -0.0107538 -0.0215075 -9.80384
ODOM 722567 40529 40752
IMU 722577 -0.0183105 0.00915527 -0.128174 0.0107538 -0.0394304 -9.79667
ODOM 722577 40529 40752
IMU 722587 -0.119019 0 -0.00915527 0 -0.0107538 -9.80026
ODOM 722588 40529 40752
IMU 722598 -0.0549316 0.0915527 -0.146484 0.00716917 -0.0645225 -9.80384
ODOM 722599 40529 40752
IMU 722607 0.0274658 0 -0.0915527 -0.0143383 -0.0394304 -9.81101
ODOM 722610 40529 40752
IMU 722617 -0.00915527 0 -0.0915527 0 -0.0716917 -9.80743
ODOM 722621 40529 40752
IMU 722629 -0.109863 0.0915527 -0.0732422 0.00716917 -0.0537688 -9.80026
ODOM 722631 40529 40752
IMU 722637 -0.0457764 0.0274658 -0.00915527 0.0358459 -0.0645225 -9.81101
ODOM 722642 40529 40752
ODOM 722653 40529 40752
IMU 722647 -0.0915527 0.0457764 -0.0366211 0.0179229 -0.0465996 -9.78234
IMU 722658 -0.0457764 -0.0183105 0.0274658 0.0250921 -0.060938 -9.78234
ODOM 722664 40529 40752
ODOM 722675 40529 40752
ODOM 722686 40529 40752
IMU 722669 -0.0732422 0.0457764 0.0640869 0.0179229 -0.043015 -9.77517
IMU 722678 0.0274658 0.0183105 0.0274658 0.0465996 -0.0645225 -9.79667
IMU 722687 0.0366211 -0.0366211 0.100708 0.0358459 -0.0322613 -9.78234
IMU 722697 -0.0274658 -0.00915527 0.00915527 0.0645225 -0.043015 -9.79309
ODOM 722696 40529 40752
ODOM 722707 40529 40752
IMU 722712 0 -0.0274658 0.100708 0.043015 -0.0250921 -9.768
ODOM 722718 40529 40752
IMU 722717 0.0549316 0.0915527 0.0732422 0.0501842 -0.0286767 -9.79309
ODOM 722729 40529 40752
IMU 722727 0.0549316 -0.0640869 0.0457764 0.043015 0 -9.77875
IMU 722737 0.00915527 0.0457764 0.0732422 0.0465996 -0.0143383 -9.79667
ODOM 722740 40529 40752
ODOM 722751 40529 40752
IMU 722747 0.0457764 -0.0366211 0.100708 0.0537688 0 -9.80026
ODOM 722761 40529 40752
IMU 722757 0.0549316 0 -0.0366211 0.0645225 -0.0107538 -9.80384
IMU 722768 0.119019 -0.0366211 0.00915527 0.0143383 0.0143383 -9.78592
ODOM 722772 40529 40752
IMU 722778 0.0457764 -0.0274658 0.0366211 0.0501842 -0.0143383 -9.80026
ODOM 722783 40529 40752
IMU 722788 0.256348 0.0274658 0 -0.0681071 0.0788609 -9.768
ODOM 722794 40529 40752
IMU 722799 0.0183105 -0.0732422 -0.0366211 0.0645225 -0.0465996 -9.79309
IMU 722807 0.15564 0.0640869 -0.128174 -0.0645225 0.0537688 -9.75007
ODOM 722805 40529 40752
ODOM 722815 40529 40752
IMU 722817 0.0366211 -0.00915527 -0.137329 0.0501842 -0.111122 -9.80026
ODOM 722826 40529 40752
IMU 722827 0.219727 -0.0183105 -0.0640869 -0.0215075 0.0179229 -9.79667
IMU 722837 0.100708 0.0366211 -0.128174 0.00358459 -0.13263 -9.80026
ODOM 722837 40529 40752
IMU 722847 0.247192 0.0274658 -0.0366211 -0.00358459 -0.043015 -9.79667
ODOM 722848 40529 40752
IMU 722857 0.283813 0.0274658 0 -0.0250921 -0.125461 -9.77517
ODOM 722859 40529 40752
ODOM 722870 40529 40752
IMU 722867 0.192261 0.0274658 -0.0366211 0 -0.0788609 -9.81101
IMU 722877 0.0915527 -0.0457764 -0.0640869 0.0215075 -0.146968 -9.75724
ODOM 722880 40529 40752
IMU 722887 0.0823975 0 -0.0183105 0 -0.0931992 -9.81818
ODOM 722891 40529 40752
IMU 722897 -0.0732422 -0.0183105 -0.0457764 0.0286767 -0.179229 -9.79309
IMU 722907 0.0274658 -0.0732422 0.0640869 -0.0107538 -0.0788609 -9.79309
ODOM 722902 40529 40752
ODOM 722913 40529 40752
IMU 722918 0.0366211 0 0.0823975 0.00716917 -0.121876 -9.76441
ODOM 722924 40529 40752
IMU 722928 0.128174 -0.0183105 0.0457764 0.0107538 -0.0681071 -9.77517
ODOM 722934 40529 40752
IMU 722940 0.00915527 -0.0366211 0.0915527 0.0322613 -0.0752763 -9.79667
IMU 722947 -0.0366211 -0.146484 0.0366211 0.0250921 -0.043015 -9.78234
ODOM 722945 40529 40752
IMU 722957 -0.0549316 -0.0823975 0.0183105 0.0143383 -0.043015 -9.83252
ODOM 722956 40529 40752
IMU 722967 0.0366211 0 0.0183105 0.0143383 -0.0143383 -9.77517
ODOM 722967 40529 40752
IMU 722977 0.0732422 0.0915527 0.0457764 0.0322613 -0.00716917 -9.79309
ODOM 722978 40529 40752
IMU 722987 -0.0274658 -0.0274658 0.0183105 0.0250921 0.00716917 -9.79667
ODOM 722989 40529 40752
IMU 722997 0.0274658 0.0274658 0 0.060938 -0.00358459 -9.81818
ODOM 722999 40529 40752
IMU 723009 0.119019 0.00915527 -0.0274658 0.0322613 0.0250921 -9.79667
ODOM 723010 40529 40752
IMU 723017 0.0732422 0 0.0183105 0.0537688 -0.0215075 -9.8146
ODOM 723021 40529 40752
ODOM 723032 40529 40752
IMU 723027 0.128174 0.15564 0 0.0250921 0.0143383 -9.77875
IMU 723037 0.100708 -0.00915527 -0.0366211 0.043015 -0.0143383 -9.79667
ODOM 723043 40529 40752
IMU 723048 0.0457764 0.0457764 -0.0823975 0.0286767 0.00358459 -9.80384
IMU 723059 -0.00915527 0.00915527 -0.109863 0.0537688 -0.0143383 -9.82535
ODOM 723053 40529 40752
ODOM 723064 40529 40752
IMU 723067 0.0823975 -0.0366211 -0.0732422 0.0250921 -0.0107538 -9.80743
ODOM 723075 40529 40752
ODOM 723086 40529 40752
IMU 723077 -0.0732422 -0.00915527 -0.00915527 0.0394304 -0.0394304 -9.79309
IMU 723091 0.109863 -0.0640869 -0.0823975 0.00716917 -0.0501842 -9.79667
IMU 723098 -0.0823975 0 -0.109863 0.0179229 -0.0788609 -9.79309
ODOM 723097 40529 40752
IMU 723107 0.100708 0 0.0274658 -0.00358459 -0.0537688 -9.79667
ODOM 723108 40529 40752
IMU 723117 0.0640869 0 0 0.00716917 -0.0681071 -9.80384
ODOM 723118 40529 40752
IMU 723127 0.0366211 0 -0.00915527 -0.0107538 -0.060938 -9.78592
ODOM 723129 40529 40752
IMU 723137 0.201416 -0.0274658 0.0183105 0.00358459 -0.0788609 -9.8146
ODOM 723140 40529 40752
IMU 723147 -0.0274658 -0.0823975 0 -0.0143383 -0.0645225 -9.79309
ODOM 723151 40529 40752
IMU 723157 0.109863 -0.109863 0.0457764 -0.0179229 -0.0824455 -9.78592
ODOM 723162 40529 40752
ODOM 723172 40529 40752
IMU 723167 0.119019 -0.0823975 0 0 -0.0645225 -9.77517
IMU 723179 0.15564 0.0915527 -0.0183105 0.00358459 -0.0501842 -9.81101
ODOM 723183 40529 40752
IMU 723189 0.109863 -0.0915527 0.0366211 0.00358459 -0.0501842 -9.81101
ODOM 723194 40529 40752
IMU 723199 0.100708 -0.00915527 0.0274658 0 -0.043015 -9.79309
ODOM 723205 40529 40752
IMU 723207 0.320435 0.0732422 0.00915527 -0.00716917 -0.0394304 -9.77517
ODOM 723216 40529 40752
IMU 723217 0.228882 -0.00915527 -0.0183105 0.00716917 -0.0358459 -9.77517
ODOM 723226 40529 40752
IMU 723227 0.0274658 0.0183105 0.0457764 0.00716917 -0.0179229 -9.78234
ODOM 723237 40529 40752
IMU 723237 0.100708 0.0366211 0.0457764 0.0358459 -0.0250921 -9.79309
ODOM 723248 40529 40752
IMU 723247 0.192261 -0.119019 -0.0183105 0.0215075 -0.0107538 -9.77517
ODOM 723259 40529 40752
IMU 723257 0.219727 0.0183105 -0.0274658 0.0286767 -0.0143383 -9.78951
ODOM 723270 40529 40752
IMU 723267 0.0823975 0.0640869 0.109863 0.0537688 0.0537688 -9.76441
ODOM 723281 40529 40752
IMU 723277 0.3479 0 0.00915527 0.401474 0.673902 -9.78592
IMU 723287 0.585938 -0.411987 -0.0640869 -0.243752 0.931992 -9.94364
IMU 723297 1.09863 0.201416 0.128174 0.444489 -1.73494 -9.99383
ODOM 723291 40529 40752
ODOM 723302 40529 40752
IMU 723307 -0.0915527 -0.485229 -0.201416 -0.322613 0.473165 -9.80026
ODOM 723313 40529 40752
IMU 723317 0.65918 0.274658 -0.0549316 -0.0465996 0.254506 -10.1659
IMU 723327 0.366211 -0.183105 0.00915527 0.146968 -0.0465996 -8.99373
ODOM 723324 40529 40752
IMU 723337 0.686646 0.17395 -0.137329 -0.580703 -0.845962 -9.69631
ODOM 723335 40529 40752
IMU 723347 0.0274658 0.67749 -0.128174 0.716917 0.0286767 -9.75366
ODOM 723345 40529 40752
ODOM 723356 40529 40752
IMU 723357 0.137329 -1.29089 -0.274658 -0.114707 -0.111122 -10.1085
IMU 723367 0.17395 -0.338745 -0.201416 -0.118291 -0.365628 -9.99383
ODOM 723367 40529 40752
ODOM 723378 40529 40752
IMU 723377 -0.0915527 0.292969 0.0640869 -0.0107538 -0.387135 -9.2088
IMU 723387 0.311279 0.952148 -0.320435 0.154137 0.397889 -9.40954
ODOM 723389 40529 40752
IMU 723397 0.137329 -0.650024 0 0.200737 -0.620133 -10.3774
ODOM 723400 40529 40752
ODOM 723410 40529 40752
IMU 723406 -0.384521 -0.686646 -0.164795 -0.311859 -0.0573534 -10.4598
IMU 723416 -0.0549316 0.640869 -0.109863 0.00358459 -0.111122 -9.07617
ODOM 723421 40529 40752
ODOM 723432 40529 40752
IMU 723426 -0.292969 -0.0274658 -0.0823975 0.193568 -0.286767 -9.31275
IMU 723438 -0.256348 -0.32959 0.0640869 -0.060938 -0.129045 -10.5459
IMU 723446 -0.430298 0.137329 0.0549316 -0.161306 -0.0824455 -10.2053
ODOM 723443 40529 40752
IMU 723456 -0.476074 0.15564 0.0823975 0.0645225 -0.265259 -9.21597
ODOM 723454 40529 40752
ODOM 723465 40529 40752
IMU 723466 -0.466919 -0.439453 0.109863 0 -0.0179229 -9.76083
IMU 723476 -0.320435 0.311279 0.0915527 -0.0215075 0.0501842 -10.1731
ODOM 723475 40529 40752
IMU 723486 -0.512695 0.00915527 0.137329 0.0179229 -0.136214 -9.60669
ODOM 723486 40529 40752
IMU 723496 -0.476074 -0.384521 0.164795 0 0.0896147 -9.68914
ODOM 723497 40529 40752
IMU 723506 -0.320435 0.15564 0.15564 -0.0860301 0.0573534 -9.93289
ODOM 723508 40529 40752
ODOM 723519 40529 40752
IMU 723516 -0.32959 0.375366 0.119019 0.125461 -0.0322613 -9.6748
IMU 723526 -0.302124 -0.338745 0.128174 0.0143383 0.0645225 -9.90421
ODOM 723530 40529 40752
IMU 723536 -0.265503 -0.0732422 0.17395 -0.0537688 0.0788609 -9.9078
ODOM 723540 40529 40752
IMU 723547 -0.311279 0.375366 0.119019 0.0645225 0.125461 -9.47765
ODOM 723551 40529 40752
IMU 723557 -0.0915527 0.183105 -0.0183105 0.107538 0.107538 -9.67838
IMU 723567 -0.0366211 -0.466919 -0.0274658 -0.00358459 0.13263 -10.1515
IMU 723577 -0.146484 0.109863 -0.109863 -0.0465996 0.0573534 -9.80743
IMU 723588 0.109863 0.375366 -0.0640869 0.118291 0.0501842 -9.43822
ODOM 723594 40529 40752
IMU 723597 0 -0.219727 -0.192261 0.0752763 0.043015 -9.78951
IMU 723607 0 -0.146484 -0.0549316 -0.0107538 -0.0537688 -10.0261
ODOM 723605 40529 40752
IMU 723617 0.15564 0.100708 -0.146484 0.0681071 0.060938 -9.768
ODOM 723616 40529 40752
IMU 723628 0.0640869 -0.0366211 -0.0457764 0.0286767 -0.0394304 -9.6282
ODOM 723627 40529 40752
IMU 723637 0.17395 -0.0549316 -0.183105 0.00716917 -0.0107538 -9.85761
ODOM 723638 40529 40752
IMU 723647 0.137329 0.0366211 -0.17395 0 -0.118291 -9.85403
ODOM 723648 40529 40752
IMU 723657 0.320435 -0.00915527 -0.0366211 0.0931992 -0.125461 -9.73215
ODOM 723659 40529 40752
IMU 723667 0.146484 0.00915527 0.0183105 0.00358459 -0.161306 -9.75724
ODOM 723670 40529 40752
IMU 723677 0.0640869 0.0366211 -0.0366211 0.0394304 -0.154137 -9.83969
ODOM 723681 40529 40752
IMU 723687 0.109863 0.0274658 0.0457764 0.0179229 -0.107538 -9.89346
ODOM 723692 40529 40752
IMU 723697 -0.00915527 0 0.0640869 0.00716917 -0.168476 -9.74291
ODOM 723703 40529 40752
ODOM 723713 40529 40752
IMU 723708 0.210571 0 0.0183105 -0.00716917 -0.0860301 -9.72857
IMU 723719 0.183105 0 0.183105 -0.0107538 -0.179229 -9.83252
IMU 723727 0.0274658 -0.0183105 0.146484 0.0250921 -0.0573534 -9.8612
ODOM 723724 40529 40752
IMU 723739 0.0915527 0 0.128174 -0.00358459 -0.125461 -9.768
ODOM 723735 40529 40752
IMU 723747 0.00915527 -0.0274658 0.0823975 0.00358459 -0.0681071 -9.82535
ODOM 723746 40529 40752
IMU 723757 0.0640869 0.0640869 0 -0.0358459 -0.0681071 -9.84686
ODOM 723757 40529 40752
IMU 723767 0.0640869 -0.0274658 0.164795 -0.0143383 -0.0716917 -9.77517
ODOM 723767 40529 40752
IMU 723777 0.0366211 -0.0457764 0 0.0179229 -0.0179229 -9.76441
ODOM 723778 40529 40752
ODOM 723789 40529 40752
IMU 723787 0.00915527 0.0274658 -0.00915527 -0.0107538 -0.0107538 -9.84327
IMU 723797 -0.0274658 0.0366211 0 0.0215075 -0.00358459 -9.84686
ODOM 723800 40529 40752
IMU 723807 0.0183105 -0.0183105 -0.0549316 -0.0179229 -0.0107538 -9.75007
ODOM 723811 40529 40752
IMU 723817 0.0366211 -0.0457764 -0.0640869 -0.00358459 -0.0501842 -9.77875
ODOM 723822 40529 40752
IMU 723827 0 0.0640869 -0.0915527 0.0143383 -0.0286767 -9.78951
ODOM 723832 40529 40752
ODOM 723843 40529 40752
IMU 723838 0.00915527 0.0823975 -0.0274658 0.00716917 -0.0645225 -9.78951
IMU 723848 0.100708 -0.0183105 -0.0457764 -0.00358459 -0.0394304 -9.76441
ODOM 723854 40529 40752
IMU 723857 -0.137329 -0.0549316 -0.0457764 0.0179229 -0.0394304 -9.80026
ODOM 723865 40529 40752
IMU 723867 0.0640869 -0.0274658 -0.0457764 0.00716917 -0.0645225 -9.80384
ODOM 723876 40529 40752
IMU 723877 -0.119019 0 -0.0274658 0.0143383 -0.0824455 -9.75724
ODOM 723886 40529 40752
ODOM 723897 40529 40752
IMU 723887 -0.137329 0.100708 -0.0823975 0.0215075 -0.0716917 -9.75724
IMU 723897 -0.119019 0 0 0.0465996 -0.13263 -9.80384
ODOM 723908 40529 40752
IMU 723907 -0.0640869 -0.0366211 -0.0640869 0.0322613 -0.0931992 -9.77158
ODOM 723919 40529 40752
IMU 723917 0 -0.0823975 0.0183105 0.0465996 -0.0967838 -9.81101
ODOM 723930 40529 40752
IMU 723928 -0.128174 -0.00915527 0.201416 0.0358459 -0.0537688 -9.8146
IMU 723937 -0.164795 -0.00915527 0.0640869 0.0465996 -0.0645225 -9.78234
ODOM 723940 40529 40752
IMU 723947 -0.0732422 0.0732422 0.0549316 0.0573534 -0.0394304 -9.76441
ODOM 723951 40529 40752
IMU 723957 -0.00915527 -0.100708 0.0274658 0.0465996 -0.0645225 -9.82535
ODOM 723962 40529 40752
IMU 723968 0.0366211 -0.0549316 0.146484 0.0286767 -0.0824455 -9.75366
ODOM 723973 40529 40752
IMU 723977 0.0549316 0.100708 0.192261 0.0537688 -0.00716917 -9.80384
ODOM 723984 40529 40752
IMU 723987 -0.0915527 0 0.0274658 0.0322613 0 -9.87912
ODOM 723994 40529 40752
IMU 723997 0 -0.0915527 0.119019 0.0143383 0.00716917 -9.79309
ODOM 724005 40529 40752
IMU 724007 0.183105 -0.0457764 0.100708 0.0286767 0.0286767 -9.75366
IMU 724017 0.15564 0.0274658 -0.0183105 0.0179229 0.00358459 -9.76441
ODOM 724016 40529 40752
IMU 724027 0.183105 0 0.0183105 0.00716917 0.0358459 -9.79667
ODOM 724027 40529 40752
IMU 724037 0 0.0640869 -0.0732422 0.0143383 0.0394304 -9.90063
ODOM 724038 40529 40752
ODOM 724048 40529 40752
IMU 724047 0.0732422 -0.0457764 -0.0274658 -0.00716917 -0.00716917 -9.77517
IMU 724057 0.00915527 0.0274658 -0.0183105 -0.00716917 -0.00358459 -9.74649
ODOM 724059 40529 40752
IMU 724067 0.17395 -0.128174 -0.119019 -0.00716917 -0.0215075 -9.80026
ODOM 724070 40529 40752
ODOM 724081 40529 40752
IMU 724077 0.0823975 -0.0274658 -0.100708 0.0179229 -0.0394304 -9.79309
ODOM 724092 40529 40752
IMU 724087 0.0457764 -0.137329 -0.100708 -0.0358459 -0.0394304 -9.80743
IMU 724097 -0.00915527 0 -0.128174 -0.0107538 -0.0931992 -9.77158
IMU 724107 0 -0.146484 -0.15564 0.00358459 -0.060938 -9.80743
ODOM 724103 40529 40752
ODOM 724114 40529 40752
IMU 724118 0.164795 -0.0457764 -0.0366211 -0.0358459 -0.107538 -9.80384
IMU 724127 0.17395 0.00915527 0.0183105 -0.00358459 -0.114707 -9.768
ODOM 724124 40529 40752
IMU 724137 0 -0.0640869 0.0366211 0.0537688 -0.200737 -9.74291
ODOM 724135 40529 40752
IMU 724147 0.0640869 -0.0549316 0.0457764 -0.0107538 -0.13263 -9.80026
ODOM 724146 40529 40752
IMU 724157 0.0732422 0.0183105 0 0.0215075 -0.114707 -9.83252
ODOM 724157 40529 40752
ODOM 724168 40529 40752
IMU 724167 0.15564 0 0.0274658 0.0107538 -0.13263 -9.77875
IMU 724177 -0.0823975 0.0549316 0.0915527 0 -0.154137 -9.77158
ODOM 724178 40529 40752
IMU 724187 0.146484 0.15564 0.100708 0.0286767 -0.111122 -9.7214
ODOM 724189 40529 40752
IMU 724197 -0.137329 0.0823975 0.0366211 0.0322613 -0.0967838 -9.78951
ODOM 724200 40529 40752
IMU 724207 -0.0549316 0 0.100708 0.0215075 -0.0931992 -9.85044
ODOM 724211 40529 40752
IMU 724217 -0.119019 -0.00915527 0.0457764 0.0286767 -0.043015 -9.79309
ODOM 724222 40529 40752
IMU 724230 0.0823975 -0.0732422 0.15564 0.00716917 -0.00716917 -9.77158
ODOM 724232 40529 40752
IMU 724237 -0.137329 0 0.146484 0.0250921 -0.0286767 -9.78592
ODOM 724243 40529 40752
IMU 724247 -0.0274658 0.0274658 0.137329 0.0358459 0.0179229 -9.77517
ODOM 724254 40529 40752
IMU 724257 0 0.0640869 0.0457764 0.043015 -0.00358459 -9.78951
ODOM 724265 40529 40752
IMU 724267 -0.137329 0.0823975 0 0.0358459 0.00358459 -9.81101
IMU 724277 0.0274658 0.0366211 0 0.0215075 0.0179229 -9.80384
ODOM 724276 40529 40752
IMU 724287 -0.17395 0 -0.0549316 0.00358459 0.0107538 -9.80743
ODOM 724287 40529 40752
IMU 724297 -0.137329 0 0 0.0250921 0 -9.78951
ODOM 724297 40529 40752
IMU 724307 -0.0640869 -0.0274658 -0.128174 0 0.0143383 -9.77158
ODOM 724308 40529 40752
IMU 724317 -0.0549316 -0.0366211 -0.0274658 0.0215075 -0.0250921 -9.79309
ODOM 724319 40529 40752
IMU 724327 -0.0274658 -0.0457764 -0.109863 0.0322613 -0.0215075 -9.79667
IMU 724337 0.0183105 -0.0274658 -0.100708 0.00716917 -0.043015 -9.82535
IMU 724347 0.146484 0.0732422 -0.0823975 0 -0.060938 -9.78951
IMU 724357 -0.0640869 0.0457764 0.0366211 0.0215075 -0.0824455 -9.74649
ODOM 724362 40529 40752
IMU 724368 0.0457764 -0.0183105 -0.100708 0.0107538 -0.103953 -9.78951
ODOM 724373 40529 40752
IMU 724377 0 0.00915527 0 0.0322613 -0.103953 -9.81101
ODOM 724384 40529 40752
IMU 724389 0.0915527 0 -0.0366211 0.00358459 -0.0752763 -9.76441
ODOM 724395 40529 40752
IMU 724397 0.0549316 -0.0823975 0.0366211 0.0358459 -0.103953 -9.85403
ODOM 724405 40529 40752
IMU 724407 0.0457764 0.0640869 0 0.00358459 -0.0824455 -9.79667
ODOM 724416 40529 40752
IMU 724417 0.100708 0.0274658 0 0.0215075 -0.114707 -9.75724
IMU 724427 0.146484 0 0.146484 0.0179229 -0.0645225 -9.77517
ODOM 724427 40529 40752
IMU 724437 0 -0.0732422 0.100708 0.0215075 -0.0716917 -9.80743
ODOM 724438 40529 40752
IMU 724447 0.0732422 0.0183105 0.164795 0.00716917 -0.0501842 -9.80384
ODOM 724449 40529 40752
IMU 724457 0.0274658 -0.0823975 0.0457764 0.0250921 -0.0394304 -9.79667
ODOM 724459 40529 40752
IMU 724467 0.0274658 0.0183105 0.100708 0 -0.0250921 -9.78951
ODOM 724470 40529 40752
IMU 724477 0.109863 -0.0457764 0.0640869 0.0107538 -0.043015 -9.78951
ODOM 724481 40529 40752
IMU 724487 0 0.0823975 0.0274658 0.0107538 0 -9.78234
ODOM 724492 40529 40752
IMU 724497 0.192261 -0.0457764 -0.0183105 0.0215075 -0.0358459 -9.79309
ODOM 724503 40529 40752
IMU 724507 0.0915527 -0.146484 -0.0549316 0.0143383 0.0143383 -9.79667
ODOM 724513 40529 40752
IMU 724519 0.128174 0.0457764 -0.0549316 0.00716917 -0.0250921 -9.77875
ODOM 724524 40529 40752
IMU 724527 0.0274658 -0.0915527 -0.0457764 0.0107538 0.0107538 -9.77517
ODOM 724535 40529 40752
IMU 724537 0.137329 0.0823975 -0.0549316 0.0573534 -0.0537688 -9.80026
ODOM 724546 40529 40752
IMU 724551 0.0915527 0 -0.0274658 0.103953 -0.0465996 -9.75007
ODOM 724557 40529 40752
IMU 724557 0.183105 0.192261 -0.0274658 0.164891 -0.0358459 -9.77517
ODOM 724567 40529 40752
IMU 724567 0.128174 0.0823975 -0.0915527 0.146968 -0.0286767 -9.76083
ODOM 724578 40529 40752
IMU 724577 0.119019 0.119019 -0.128174 0.197152 -0.0645225 -9.78951
ODOM 724589 40529 40752
IMU 724587 0.238037 0.164795 -0.109863 0.229414 -0.0716917 -9.78234
ODOM 724600 40529 40752
IMU 724597 0.274658 0.183105 -0.128174 0.21866 -0.0537688 -9.74649
IMU 724607 0.265503 0.109863 -0.0183105 0.250921 -0.0681071 -9.79309
ODOM 724611 40529 40752
IMU 724617 0.256348 0.228882 -0.128174 0.276013 -0.060938 -9.80384
ODOM 724622 40529 40752
IMU 724627 0.201416 0.265503 -0.119019 0.236583 -0.0716917 -9.78592
ODOM 724632 40529 40752
IMU 724638 0.283813 0.192261 -0.0732422 0.250921 -0.0465996 -9.82177
ODOM 724643 40529 40752
IMU 724647 0.210571 0.228882 -0.109863 0.229414 -0.0465996 -9.79667
ODOM 724654 40529 40752
IMU 724659 0.15564 0.119019 0.0915527 0.211491 -0.0788609 -9.8146
ODOM 724665 40529 40752
IMU 724670 0.15564 0.265503 -0.0274658 0.204321 -0.0358459 -9.81818
ODOM 724676 40529 40752
ODOM 724687 40529 40752
IMU 724677 0.283813 0.100708 -0.0823975 0.189983 -0.0501842 -9.8361
IMU 724687 0.17395 0.256348 -0.109863 0.157722 -0.0501842 -9.83969
IMU 724697 0.164795 0.210571 0 0.114707 -0.0465996 -9.87554
ODOM 724697 40529 40752
IMU 724707 0.137329 0.183105 -0.0274658 0.043015 -0.0645225 -9.85761
ODOM 724708 40529 40752
IMU 724717 0.146484 0.183105 0 0.103953 -0.00358459 -9.82535
ODOM 724719 40529 40752
IMU 724727 0.228882 0.256348 -0.100708 0.200737 -0.0322613 -9.73574
IMU 724738 0.201416 0.0457764 -0.109863 0.293936 0.0107538 -9.70347
IMU 724747 0.320435 0.100708 -0.109863 0.272429 -0.0322613 -9.74291
IMU 724757 0.338745 0.146484 -0.0915527 0.157722 -0.0501842 -9.78951
ODOM 724762 40529 40752
IMU 724767 0.274658 0.15564 -0.192261 0.107538 0.0179229 -9.72498
ODOM 724773 40529 40752
IMU 724777 0.302124 0.146484 -0.210571 0.0788609 -0.0645225 -9.68197
ODOM 724784 40529 40752
IMU 724788 0.164795 0.274658 -0.192261 0.175645 0.0179229 -9.66404
ODOM 724795 40529 40752
IMU 724797 0.256348 0.375366 -0.274658 0.243752 -0.043015 -9.66404
ODOM 724805 40529 40752
ODOM 724816 40529 40752
IMU 724806 0.357056 0.183105 -0.15564 0.175645 -0.0394304 -9.67838
ODOM 724827 40529 40752
IMU 724823 0.384521 0.192261 -0.302124 0.143383 -0.0394304 -9.71423
IMU 724826 0.411987 0.219727 -0.311279 0.0286767 -0.0967838 -9.66763
IMU 724836 0.311279 0.274658 -0.292969 0 -0.0788609 -9.7214
ODOM 724838 40529 40752
IMU 724846 0.311279 0.411987 -0.283813 0.0537688 -0.103953 -9.65329
ODOM 724849 40529 40752
IMU 724856 0.192261 0.448608 -0.247192 0.139799 -0.0681071 -9.66763
ODOM 724859 40529 40752
ODOM 724870 40529 40752
IMU 724866 0.274658 0.366211 -0.338745 0.114707 -0.0752763 -9.68555
IMU 724876 0.137329 0.3479 -0.283813 0.0788609 -0.0931992 -9.72857
ODOM 724881 40529 40752
ODOM 724892 40529 40752
IMU 724887 0.256348 0.274658 -0.192261 -0.0179229 -0.111122 -9.72498
IMU 724897 0.109863 0.402832 -0.265503 -0.0573534 -0.125461 -9.70706
ODOM 724903 40529 40752
IMU 724906 0.15564 0.512695 -0.183105 0.0501842 -0.125461 -9.60311
IMU 724916 0.109863 0.650024 -0.265503 0.207906 -0.125461 -9.63178
ODOM 724913 40529 40752
ODOM 724924 40529 40752
IMU 724927 0.146484 0.631714 -0.128174 0.261675 -0.146968 -9.76441
ODOM 724935 40529 40752
IMU 724936 0.164795 0.540161 -0.228882 0.222244 -0.118291 -9.78592
ODOM 724946 40529 40752
IMU 724946 0.0732422 0.466919 -0.109863 0.182814 -0.0860301 -9.76441
IMU 724956 0.0732422 0.512695 -0.164795 0.146968 -0.107538 -9.84686
ODOM 724957 40529 40752
ODOM 724968 40529 40752
IMU 724966 -0.00915527 0.384521 -0.119019 0.161306 -0.0896147 -9.77517
ODOM 724979 40529 40752
IMU 724976 0.201416 0.476074 -0.100708 0.154137 -0.0896147 -9.81101
ODOM 724989 40529 40752
IMU 724986 0.228882 0.338745 -0.15564 0.125461 -0.0896147 -9.89346
IMU 724996 0.0915527 0.448608 -0.128174 0.129045 -0.0716917 -9.96515
ODOM 725000 40529 40752
ODOM 725011 40529 40752
IMU 725006 0.0823975 0.375366 -0.274658 0.154137 -0.0286767 -9.99024
IMU 725016 0.192261 0.3479 -0.164795 0.13263 -0.0322613 -9.90421
ODOM 725022 40529 40752
IMU 725027 -0.0366211 0.320435 -0.137329 0.121876 -0.0286767 -9.85403
ODOM 725032 40529 40752
IMU 725036 0.0274658 0.311279 -0.238037 0.121876 -0.0573534 -9.9078
IMU 725046 0.0457764 0.201416 -0.219727 0.118291 -0.043015 -9.96157
ODOM 725043 40529 40752
ODOM 725054 40529 40752
IMU 725056 0.137329 0.201416 -0.274658 0.157722 -0.0465996 -10.0046
ODOM 725065 40529 40752
IMU 725066 0.146484 0.137329 -0.292969 0.154137 -0.0179229 -9.94364
IMU 725076 0 0.210571 -0.302124 0.146968 0 -9.94364
ODOM 725076 40529 40752
ODOM 725086 40529 40752
IMU 725091 0.0823975 0.0549316 -0.3479 0.168476 -0.0143383 -9.91855
IMU 725096 0.0640869 0.137329 -0.393677 0.182814 -0.0358459 -9.86837
ODOM 725097 40529 40752
IMU 725106 0.0823975 0.119019 -0.357056 0.21866 -0.0573534 -9.86837
ODOM 725108 40529 40752
ODOM 725119 40529 40752
IMU 725116 0.0457764 0.0457764 -0.393677 0.204321 -0.0931992 -9.92213
IMU 725126 0.00915527 0.00915527 -0.384521 0.189983 -0.0752763 -9.95081
ODOM 725130 40529 40752
ODOM 725140 40529 40752
IMU 725136 0.0915527 -0.109863 -0.357056 0.186398 -0.0681071 -9.89346
IMU 725148 0.0366211 -0.17395 -0.402832 0.225829 -0.100368 -9.82535
ODOM 725151 40529 40752
IMU 725157 0.00915527 0.0366211 -0.402832 0.250921 -0.0860301 -9.8146
ODOM 725162 40530 40752
IMU 725167 0.0823975 -0.0457764 -0.228882 0.25809 -0.100368 -9.80743
ODOM 725173 40530 40753
IMU 725176 -0.0823975 0.0183105 -0.283813 0.240167 -0.157722 -9.85044
ODOM 725184 40530 40753
IMU 725186 0.0915527 -0.0183105 -0.228882 0.232998 -0.136214 -9.85761
ODOM 725195 40530 40753
IMU 725196 -0.00915527 -0.0915527 -0.247192 0.25809 -0.129045 -9.81818
IMU 725207 0.0640869 0.0183105 -0.320435 0.265259 -0.0681071 -9.78592
ODOM 725205 40530 40753
IMU 725217 0.100708 0.0274658 -0.292969 0.25809 -0.103953 -9.77517
ODOM 725216 40530 40753
IMU 725227 0.119019 0 -0.311279 0.272429 -0.0967838 -9.75366
ODOM 725227 40530 40753
IMU 725237 0.15564 -0.0457764 -0.219727 0.286767 -0.118291 -9.79309
ODOM 725238 40530 40753
ODOM 725249 40530 40753
IMU 725247 0.0640869 0.0183105 -0.265503 0.286767 -0.0967838 -9.80026
IMU 725257 0.219727 0 -0.283813 0.283182 -0.0860301 -9.77875
ODOM 725259 40530 40753
ODOM 725270 40530 40753
IMU 725267 0.238037 0.164795 -0.265503 0.301105 -0.0358459 -9.74291
IMU 725277 0.183105 0.00915527 -0.274658 0.297521 -0.0250921 -9.75366
ODOM 725281 40530 40753
ODOM 725292 40530 40753
IMU 725287 0.164795 0.119019 -0.338745 0.311859 -0.0286767 -9.73932
IMU 725298 0.238037 0.0549316 -0.320435 0.315444 -0.0179229 -9.76441
ODOM 725303 40530 40753
IMU 725308 0.183105 0.0549316 -0.393677 0.308274 -0.0465996 -9.75366
IMU 725317 0.128174 0.210571 -0.393677 0.319028 -0.0179229 -9.78234
ODOM 725313 40530 40753
IMU 725327 0.238037 0.0915527 -0.393677 0.329782 -0.0215075 -9.76441
ODOM 725324 40530 40753
IMU 725337 0.15564 0.210571 -0.531006 0.340536 0 -9.76441
ODOM 725335 40530 40753
IMU 725347 0.119019 0.0823975 -0.521851 0.340536 0.00358459 -9.72498
ODOM 725346 40530 40753
IMU 725357 0.17395 0.0457764 -0.604248 0.358459 -0.043015 -9.76083
ODOM 725357 40530 40753
ODOM 725368 40530 40753
IMU 725366 0.219727 0.274658 -0.521851 0.365628 -0.0465996 -9.77158
ODOM 725378 40530 40753
IMU 725376 0.119019 0.17395 -0.631714 0.365628 -0.0860301 -9.76441
ODOM 725389 40530 40754
IMU 725386 0.146484 0.17395 -0.631714 0.379966 -0.0537688 -9.76083
IMU 725396 0.183105 0.137329 -0.650024 0.401474 -0.0645225 -9.768
ODOM 725400 40531 40754
IMU 725406 0.0823975 0.109863 -0.714111 0.394304 -0.0716917 -9.77517
IMU 725416 0.128174 0.15564 -0.805664 0.405058 -0.0860301 -9.768
IMU 725426 0.210571 0.0640869 -0.668335 0.397889 -0.0860301 -9.768
IMU 725437 0.164795 0.146484 -0.805664 0.379966 -0.13263 -9.77517
IMU 725446 0.0640869 0.292969 -0.778198 0.433735 -0.103953 -9.79309
ODOM 725443 40531 40754
IMU 725456 0.183105 0.0732422 -0.704956 0.440904 -0.139799 -9.78951
ODOM 725454 40531 40754
ODOM 725465 40531 40754
IMU 725472 0.183105 0.183105 -0.704956 0.448073 -0.111122 -9.77158
IMU 725476 0.228882 0.100708 -0.723267 0.440904 -0.121876 -9.77875
ODOM 725476 40531 40754
ODOM 725486 40531 40754
IMU 725486 0.109863 0.15564 -0.787354 0.422981 -0.121876 -9.80384
ODOM 725497 40531 40754
IMU 725496 0.210571 0.15564 -0.67749 0.448073 -0.125461 -9.81818
IMU 725506 0.0732422 0.119019 -0.823975 0.47675 -0.125461 -9.79667
ODOM 725508 40531 40754
ODOM 725519 40531 40754
IMU 725516 0.265503 0.100708 -0.83313 0.465996 -0.121876 -9.80743
ODOM 725530 40531 40754
IMU 725526 0.292969 0.109863 -0.787354 0.465996 -0.0860301 -9.77875
IMU 725536 0.219727 0.17395 -0.83313 0.473165 -0.0967838 -9.81818
ODOM 725541 40531 40755
ODOM 725551 40532 40755
IMU 725547 0.292969 0.0732422 -0.897217 0.494673 -0.0967838 -9.82535
IMU 725556 0.201416 0.183105 -0.814819 0.494673 -0.0752763 -9.80384
ODOM 725562 40532 40755
IMU 725566 0.183105 0.0366211 -0.85144 0.483919 -0.060938 -9.79309
ODOM 725573 40532 40755
IMU 725576 0.100708 0.0457764 -0.952148 0.498257 -0.0681071 -9.82894
IMU 725588 0.137329 0.0457764 -0.952148 0.494673 -0.0465996 -9.80384
ODOM 725584 40532 40755
IMU 725596 0.164795 0.0823975 -0.997925 0.505427 -0.0322613 -9.8146
ODOM 725595 40532 40755
IMU 725606 0.0732422 0.128174 -1.15356 0.51618 -0.0322613 -9.80384
ODOM 725606 40532 40755
IMU 725616 0.0732422 0.0274658 -1.07117 0.509011 -0.0681071 -9.80743
ODOM 725616 40532 40755
IMU 725627 0.0549316 0.0549316 -1.08032 0.530519 -0.043015 -9.82177
ODOM 725627 40532 40755
IMU 725636 0.0457764 0.0732422 -1.17188 0.512596 -0.0394304 -9.81101
ODOM 725638 40532 40756
ODOM 725649 40532 40756
IMU 725646 0.15564 0.0823975 -1.22681 0.534103 -0.0250921 -9.78592
IMU 725656 0.15564 -0.0457764 -1.3092 0.534103 -0.0358459 -9.81101
ODOM 725660 40533 40756
IMU 725666 0.183105 0.0549316 -1.3916 0.51618 -0.0179229 -9.81101
ODOM 725670 40533 40756
ODOM 725681 40533 40756
IMU 725678 0.201416 0.109863 -1.41907 0.555611 -0.0645225 -9.79667
IMU 725686 0.0457764 0.17395 -1.51978 0.569949 -0.043015 -9.78234
ODOM 725692 40533 40756
IMU 725697 0.192261 0.0549316 -1.53809 0.559195 -0.107538 -9.82535
ODOM 725703 40533 40756
IMU 725709 0.119019 0.0183105 -1.43738 0.555611 -0.060938 -9.78592
ODOM 725714 40533 40757
IMU 725716 0.228882 0.00915527 -1.57471 0.56278 -0.0931992 -9.78592
ODOM 725725 40533 40757
IMU 725726 0.228882 0.0732422 -1.60217 0.580703 -0.0716917 -9.81101
ODOM 725735 40533 40757
IMU 725736 0.265503 0.0732422 -1.64795 0.595041 -0.0896147 -9.768
ODOM 725746 40534 40757
IMU 725746 0.302124 0.146484 -1.74866 0.591457 -0.111122 -9.78592
ODOM 725757 40534 40757
IMU 725757 0.201416 0.164795 -1.7395 0.598626 -0.125461 -9.81101
ODOM 725768 40534 40757
IMU 725766 0.17395 0.109863 -1.8219 0.605795 -0.114707 -9.76083
ODOM 725779 40534 40757
IMU 725777 0.128174 0.0732422 -1.87683 0.591457 -0.139799 -9.8146
IMU 725786 0.256348 0.128174 -1.81274 0.616549 -0.0860301 -9.78234
ODOM 725790 40534 40758
ODOM 725800 40534 40758
IMU 725797 0.146484 0.192261 -1.88599 0.616549 -0.121876 -9.75724
IMU 725807 0.0640869 0.146484 -1.95923 0.638056 -0.100368 -9.8146
ODOM 725811 40535 40758
IMU 725816 0.228882 0.119019 -2.02332 0.64881 -0.107538 -9.78951
IMU 725826 0.17395 0.0640869 -2.01416 0.623718 -0.121876 -9.78951
ODOM 725822 40535 40758
IMU 725836 0.192261 0.0640869 -2.09656 0.64881 -0.118291 -9.78592
ODOM 725833 40535 40758
IMU 725849 0.0915527 0.128174 -2.04163 0.620133 -0.0788609 -9.77875
ODOM 725844 40535 40759
ODOM 725855 40535 40759
IMU 725856 0.17395 0.283813 -2.12402 0.652395 -0.0896147 -9.80384
IMU 725866 0.283813 0.219727 -2.24304 0.677487 -0.0716917 -9.78234
ODOM 725865 40535 40759
IMU 725877 0.0640869 0.183105 -2.27051 0.684656 -0.0752763 -9.79667
ODOM 725876 40535 40759
ODOM 725887 40536 40759
IMU 725886 0.0915527 0.0183105 -2.28882 0.677487 -0.0824455 -9.78951
ODOM 725899 40536 40760
IMU 725896 0.274658 0.15564 -2.38953 0.677487 -0.0752763 -9.80026
ODOM 725910 40536 40760
IMU 725906 0.0549316 0.201416 -2.46277 0.677487 -0.0860301 -9.78592
IMU 725916 0.137329 0.219727 -2.54517 0.702579 -0.0681071 -9.78951
ODOM 725920 40536 40760
IMU 725926 0.0732422 0.15564 -2.55432 0.716917 -0.0788609 -9.78234
ODOM 725931 40536 40760
IMU 725936 0.100708 0.219727 -2.64587 0.73484 -0.0645225 -9.80743
ODOM 725942 40537 40761
IMU 725946 0.17395 0.137329 -2.74658 0.720502 -0.0752763 -9.79667
IMU 725956 0.128174 0.128174 -2.75574 0.716917 -0.0824455 -9.77875
ODOM 725953 40537 40761
IMU 725966 0.192261 0.238037 -2.84729 0.720502 -0.0824455 -9.77158
ODOM 725964 40537 40761
IMU 725976 0.219727 0.210571 -2.93884 0.73484 -0.0931992 -9.77158
ODOM 725975 40537 40761
IMU 725986 0.17395 -0.0732422 -3.02124 0.745594 -0.0788609 -9.80026
ODOM 725985 40537 40761
IMU 725996 0.0915527 0.164795 -3.06702 0.777855 -0.111122 -9.78234
ODOM 725996 40537 40762
ODOM 726007 40538 40762
IMU 726009 0.0549316 0.137329 -3.19519 0.756348 -0.0824455 -9.78234
IMU 726016 0.219727 0.210571 -3.16772 0.777855 -0.136214 -9.79667
ODOM 726018 40538 40762
IMU 726026 0.109863 0.192261 -3.22266 0.777855 -0.107538 -9.768
ODOM 726029 40538 40762
IMU 726036 0.0366211 0.128174 -3.27759 0.763517 -0.150553 -9.78234
ODOM 726039 40538 40763
IMU 726046 0.137329 0.0823975 -3.34167 0.824455 -0.121876 -9.79667
ODOM 726050 40538 40763
ODOM 726061 40539 40763
IMU 726056 0.0915527 0.292969 -3.43323 0.824455 -0.136214 -9.77875
IMU 726066 0.00915527 0.0732422 -3.38745 0.824455 -0.17206 -9.78592
ODOM 726072 40539 40764
IMU 726076 0.0549316 0.238037 -3.45154 0.835209 -0.143383 -9.78234
ODOM 726083 40539 40764
IMU 726086 0.0732422 0.0823975 -3.51562 0.806532 -0.164891 -9.76083
ODOM 726094 40539 40764
IMU 726096 0.0823975 0.109863 -3.51562 0.842378 -0.168476 -9.79667
ODOM 726104 40540 40764
ODOM 726115 40540 40765
IMU 726108 0.00915527 0.238037 -3.57971 0.863885 -0.154137 -9.77517
IMU 726116 -0.128174 0.100708 -3.54309 0.863885 -0.164891 -9.79667
ODOM 726126 40540 40765
IMU 726126 -0.0457764 0.100708 -3.68958 0.86747 -0.157722 -9.77517
ODOM 726137 40540 40765
IMU 726136 -0.119019 0.15564 -3.68042 0.874639 -0.146968 -9.77875
IMU 726146 -0.0549316 0.0915527 -3.69873 0.849547 -0.136214 -9.77875
ODOM 726148 40541 40765
IMU 726156 -0.0732422 0.00915527 -3.79028 0.86747 -0.139799 -9.768
ODOM 726158 40541 40766
IMU 726166 -0.0274658 0.238037 -3.81775 0.874639 -0.136214 -9.77875
ODOM 726169 40541 40766
IMU 726176 -0.0823975 0.0366211 -3.9093 0.931992 -0.129045 -9.79309
ODOM 726180 40541 40766
IMU 726186 -0.15564 0.0915527 -3.9917 0.896147 -0.0931992 -9.75724
ODOM 726191 40541 40767
IMU 726196 -0.137329 0.0732422 -4.11072 0.903316 -0.125461 -9.78592
ODOM 726202 40542 40767
IMU 726206 0.0274658 0.183105 -4.10156 0.910485 -0.0788609 -9.77517
ODOM 726213 40542 40767
IMU 726216 0.00915527 0.137329 -4.19312 0.914069 -0.0967838 -9.76441
ODOM 726223 40543 40768
IMU 726226 0.0915527 0.183105 -4.21143 0.939162 -0.0824455 -9.77875
ODOM 726234 40543 40768
IMU 726238 0.119019 0.183105 -4.30298 0.949915 -0.0752763 -9.77517
ODOM 726245 40543 40768
IMU 726246 0.146484 0.201416 -4.36707 0.931992 -0.0752763 -9.79309
ODOM 726256 40543 40769
IMU 726256 0.17395 0.146484 -4.45862 0.939162 -0.0752763 -9.78951
ODOM 726267 40544 40769
IMU 726266 0.265503 0.0915527 -4.46777 0.935577 -0.0752763 -9.77875
ODOM 726278 40544 40769
IMU 726279 0.228882 0.302124 -4.65088 0.946331 -0.0752763 -9.81818
ODOM 726288 40544 40770
IMU 726286 0.0823975 0.109863 -4.73328 0.964254 -0.0465996 -9.80384
ODOM 726299 40544 40770
IMU 726296 0.256348 0.109863 -4.81567 0.960669 -0.0716917 -9.8146
IMU 726306 0.15564 0.0549316 -4.85229 0.946331 -0.0716917 -9.79667
ODOM 726310 40545 40770
IMU 726316 0.292969 0.100708 -4.98047 0.931992 -0.0824455 -9.8146
IMU 726326 0.164795 0.0823975 -4.96216 0.896147 -0.0896147 -9.83969
ODOM 726321 40545 40771
ODOM 726332 40546 40771
IMU 726336 0.247192 0.164795 -5.13611 0.892562 -0.0824455 -9.81101
IMU 726346 0.3479 0.137329 -5.19104 0.856716 -0.107538 -9.82535
ODOM 726343 40546 40772
IMU 726356 0.228882 0.109863 -5.3009 0.86747 -0.136214 -9.84686
ODOM 726353 40546 40772
ODOM 726364 40546 40773
ODOM 726375 40547 40773
IMU 726370 0.366211 0 -5.43823 0.838793 -0.103953 -9.82535
IMU 726376 0.228882 0.0183105 -5.45654 0.810116 -0.182814 -9.85761
ODOM 726386 40547 40773
IMU 726386 0.265503 0 -5.68542 0.806532 -0.118291 -9.85044
ODOM 726397 40547 40774
IMU 726396 0.119019 -0.100708 -5.5481 0.777855 -0.200737 -9.83252
IMU 726406 0.320435 -0.128174 -5.67627 0.799363 -0.161306 -9.85403
ODOM 726407 40548 40774
IMU 726416 0.238037 -0.0366211 -5.72205 0.767101 -0.197152 -9.81818
ODOM 726418 40548 40774
IMU 726426 0.228882 -0.183105 -5.84106 0.73484 -0.193568 -9.82535
ODOM 726429 40548 40775
IMU 726437 0.292969 -0.0915527 -5.8136 0.738425 -0.204321 -9.84686
ODOM 726440 40549 40775
IMU 726446 0.210571 -0.201416 -5.95093 0.727671 -0.211491 -9.8361
ODOM 726451 40549 40776
IMU 726456 0.32959 -0.210571 -5.9967 0.713333 -0.21866 -9.79667
ODOM 726462 40550 40776
IMU 726466 0.100708 -0.265503 -6.10657 0.716917 -0.243752 -9.77875
IMU 726476 0.164795 -0.274658 -6.06995 0.706163 -0.236583 -9.80026
ODOM 726472 40550 40777
ODOM 726483 40550 40777
IMU 726487 0.0457764 -0.238037 -6.14319 0.688241 -0.254506 -9.77517
ODOM 726494 40551 40778
IMU 726499 0.0457764 -0.0823975 -6.27136 0.666733 -0.243752 -9.77158
ODOM 726505 40551 40778
IMU 726507 -0.0640869 -0.274658 -6.17065 0.659564 -0.25809 -9.768
IMU 726516 -0.0183105 -0.128174 -6.30798 0.641641 -0.261675 -9.77158
ODOM 726516 40551 40779
ODOM 726526 40552 40779
IMU 726526 0 -0.183105 -6.37207 0.652395 -0.236583 -9.76083
ODOM 726537 40552 40779
IMU 726536 -0.0274658 -0.192261 -6.35376 0.638056 -0.261675 -9.80026
ODOM 726548 40552 40780
IMU 726546 -0.100708 -0.0640869 -6.50024 0.64881 -0.236583 -9.73574
IMU 726556 -0.0915527 -0.128174 -6.58264 0.620133 -0.250921 -9.75724
ODOM 726559 40553 40780
ODOM 726570 40553 40781
IMU 726566 -0.0823975 -0.17395 -6.63757 0.595041 -0.215075 -9.77875
IMU 726576 -0.137329 -0.109863 -6.67419 0.580703 -0.222244 -9.74649
ODOM 726580 40553 40781
IMU 726586 -0.100708 -0.0823975 -6.74744 0.595041 -0.207906 -9.76441
ODOM 726591 40554 40782
IMU 726596 -0.192261 -0.0366211 -6.80237 0.60938 -0.207906 -9.75724
ODOM 726602 40554 40782
IMU 726606 -0.164795 -0.109863 -6.87561 0.587872 -0.200737 -9.74291
ODOM 726613 40555 40783
IMU 726617 -0.137329 -0.15564 -6.81152 0.584288 -0.154137 -9.78234
ODOM 726624 40555 40783
IMU 726629 -0.183105 -0.0274658 -6.98547 0.56278 -0.182814 -9.75366
IMU 726636 -0.192261 -0.0274658 -7.04041 0.555611 -0.164891 -9.77517
ODOM 726635 40555 40784
IMU 726646 -0.146484 0.00915527 -7.10449 0.580703 -0.186398 -9.78234
ODOM 726646 40556 40784
IMU 726657 -0.247192 -0.0915527 -7.21436 0.566365 -0.161306 -9.77158
ODOM 726656 40556 40785
IMU 726666 -0.183105 -0.0823975 -7.19604 0.544857 -0.179229 -9.77158
ODOM 726667 40557 40785
IMU 726676 -0.320435 -0.0366211 -7.2876 0.552026 -0.154137 -9.77875
ODOM 726678 40557 40786
IMU 726686 -0.201416 -0.0823975 -7.36084 0.537688 -0.17206 -9.78592
ODOM 726689 40557 40786
ODOM 726700 40558 40787
IMU 726696 -0.210571 -0.0366211 -7.46155 0.541273 -0.182814 -9.78592
IMU 726706 -0.0915527 -0.100708 -7.62634 0.548442 -0.164891 -9.76441
ODOM 726710 40558 40787
IMU 726718 -0.320435 -0.0915527 -7.5531 0.559195 -0.207906 -9.77875
ODOM 726721 40559 40788
IMU 726726 -0.137329 0.0274658 -7.64465 0.534103 -0.175645 -9.80743
ODOM 726732 40559 40788
IMU 726736 -0.201416 -0.00915527 -7.53479 0.512596 -0.197152 -9.78592
ODOM 726743 40560 40789
IMU 726746 -0.128174 -0.0183105 -7.73621 0.509011 -0.200737 -9.79309
ODOM 726754 40560 40789
IMU 726756 -0.201416 -0.0274658 -7.72705 0.519765 -0.236583 -9.75366
ODOM 726765 40560 40790
IMU 726766 -0.192261 -0.0640869 -7.77283 0.512596 -0.211491 -9.79667
ODOM 726775 40561 40790
IMU 726776 -0.137329 0.0549316 -7.85522 0.509011 -0.236583 -9.78951
ODOM 726786 40561 40791
IMU 726786 -0.274658 -0.119019 -7.77283 0.494673 -0.222244 -9.76441
ODOM 726797 40561 40791
IMU 726796 -0.0823975 -0.0457764 -7.82776 0.462412 -0.243752 -9.82535
ODOM 726808 40562 40792
IMU 726806 -0.228882 -0.0457764 -7.82776 0.473165 -0.215075 -9.77158
ODOM 726819 40562 40792
IMU 726819 -0.256348 -0.0274658 -7.9834 0.458827 -0.225829 -9.77517
IMU 726827 -0.164795 0.0366211 -7.901 0.462412 -0.215075 -9.79667
ODOM 726830 40563 40793
IMU 726836 -0.183105 0.0823975 -8.02002 0.47675 -0.225829 -9.79667
ODOM 726840 40563 40793
IMU 726846 -0.100708 0 -7.96509 0.448073 -0.215075 -9.79667
ODOM 726851 40563 40794
IMU 726856 -0.238037 -0.128174 -8.03833 0.444489 -0.250921 -9.78592
ODOM 726862 40564 40795
IMU 726867 -0.265503 0.0549316 -8.11157 0.448073 -0.200737 -9.77875
ODOM 726873 40565 40795
IMU 726876 -0.119019 0.0640869 -8.22144 0.426566 -0.200737 -9.74649
ODOM 726884 40565 40796
IMU 726886 -0.228882 -0.0549316 -8.20312 0.455242 -0.21866 -9.80026
IMU 726896 -0.17395 -0.137329 -8.25806 0.440904 -0.222244 -9.78234
ODOM 726895 40565 40796
IMU 726906 -0.238037 -0.128174 -8.29468 0.426566 -0.215075 -9.73574
ODOM 726905 40566 40797
IMU 726916 -0.274658 -0.00915527 -8.34961 0.422981 -0.21866 -9.768
ODOM 726916 40566 40797
ODOM 726927 40567 40798
IMU 726931 -0.137329 -0.0549316 -8.40454 0.419397 -0.225829 -9.76083
ODOM 726938 40567 40798
IMU 726936 -0.100708 0.0823975 -8.45032 0.433735 -0.200737 -9.76083
IMU 726946 -0.228882 -0.0549316 -8.34961 0.426566 -0.229414 -9.75007
ODOM 726949 40567 40799
IMU 726957 -0.119019 0.0549316 -8.53271 0.451658 -0.21866 -9.75724
ODOM 726959 40568 40800
IMU 726966 -0.0457764 0.00915527 -8.50525 0.412227 -0.21866 -9.74649
ODOM 726970 40568 40800
ODOM 726981 40569 40801
IMU 726976 -0.0183105 -0.0366211 -8.61511 0.415812 -0.243752 -9.78951
IMU 726986 -0.119019 0 -8.52356 0.408643 -0.225829 -9.76083
ODOM 726992 40570 40802
IMU 726996 -0.0366211 0.0274658 -8.62427 0.43732 -0.247336 -9.74291
ODOM 727003 40570 40802
IMU 727007 -0.0274658 -0.0732422 -8.60596 0.408643 -0.222244 -9.75007
ODOM 727014 40570 40803
ODOM 727024 40571 40803
IMU 727018 0.0549316 0.00915527 -8.67004 0.405058 -0.243752 -9.78234
IMU 727026 0.0732422 0.0366211 -8.65173 0.39072 -0.247336 -9.74649
ODOM 727035 40571 40804
IMU 727036 -0.15564 -0.0640869 -8.7616 0.376382 -0.268844 -9.76441
IMU 727046 -0.119019 -0.0915527 -8.77991 0.379966 -0.240167 -9.73574
ODOM 727046 40572 40804
IMU 727056 -0.119019 0.0183105 -8.77075 0.39072 -0.261675 -9.768
ODOM 727057 40572 40805
IMU 727066 -0.128174 -0.0274658 -8.73413 0.372797 -0.250921 -9.76441
ODOM 727068 40573 40805
IMU 727076 -0.0549316 0.210571 -8.83484 0.365628 -0.236583 -9.78951
ODOM 727078 40573 40806
IMU 727086 -0.128174 0.0549316 -8.8623 0.383551 -0.250921 -9.78234
ODOM 727089 40573 40806
IMU 727096 -0.192261 0.128174 -8.9447 0.351289 -0.243752 -9.76083
ODOM 727100 40574 40807
IMU 727106 -0.302124 -0.0183105 -8.87146 0.362043 -0.236583 -9.76441
ODOM 727111 40574 40808
IMU 727116 -0.109863 0.128174 -8.88062 0.340536 -0.261675 -9.75007
IMU 727126 -0.128174 0.100708 -8.90808 0.333367 -0.236583 -9.78951
ODOM 727122 40575 40809
ODOM 727133 40576 40809
IMU 727137 -0.183105 0.228882 -8.9447 0.358459 -0.276013 -9.8361
IMU 727147 -0.17395 0.146484 -8.98132 0.340536 -0.247336 -9.76441
ODOM 727143 40576 40810
ODOM 727154 40576 40810
IMU 727158 -0.164795 -0.0457764 -9.03625 0.322613 -0.211491 -9.81101
IMU 727166 -0.210571 0.201416 -9.05457 0.333367 -0.276013 -9.80384
ODOM 727165 40577 40811
IMU 727176 -0.256348 0.183105 -9.11865 0.347705 -0.204321 -9.76441
ODOM 727176 40577 40811
ODOM 727187 40578 40812
IMU 727186 -0.17395 0.17395 -9.12781 0.319028 -0.207906 -9.82535
IMU 727196 -0.192261 0.0915527 -9.19189 0.340536 -0.207906 -9.78951
ODOM 727197 40578 40813
ODOM 727208 40579 40813
IMU 727206 -0.183105 0.109863 -9.26514 0.340536 -0.211491 -9.78592
IMU 727216 -0.274658 0.0366211 -9.34753 0.336951 -0.236583 -9.85044
ODOM 727219 40579 40814
IMU 727226 -0.210571 0.0915527 -9.36584 0.326197 -0.200737 -9.78951
ODOM 727230 40579 40814
IMU 727236 -0.0640869 0.0915527 -9.42078 0.315444 -0.200737 -9.78592
ODOM 727241 40580 40815
ODOM 727252 40581 40816
IMU 727246 0.0366211 0.146484 -9.42993 0.336951 -0.200737 -9.8361
ODOM 727262 40581 40817
IMU 727256 0.183105 0.0183105 -9.52148 0.362043 -0.215075 -9.78592
IMU 727266 0.0640869 0.100708 -9.53064 0.311859 -0.21866 -9.80384
IMU 727276 -0.00915527 0.192261 -9.57642 0.311859 -0.232998 -9.82177
ODOM 727273 40582 40817
IMU 727286 0.0183105 0 -9.60388 0.315444 -0.204321 -9.72857
ODOM 727284 40582 40818
IMU 727296 0.146484 0.15564 -9.64966 0.319028 -0.250921 -9.82177
ODOM 727295 40583 40818
IMU 727306 0.119019 0.137329 -9.63135 0.319028 -0.236583 -9.76441
ODOM 727306 40583 40819
IMU 727316 0.201416 0.192261 -9.82361 0.340536 -0.268844 -9.77158
ODOM 727316 40583 40819
IMU 727326 0.210571 0.0823975 -9.75952 0.30469 -0.283182 -9.84327
ODOM 727327 40584 40820
ODOM 727338 40584 40821
IMU 727336 0.265503 0.15564 -9.86023 0.290351 -0.250921 -9.73932
IMU 727347 0.219727 0.0640869 -9.76868 0.268844 -0.286767 -9.79309
ODOM 727349 40585 40821
IMU 727356 0.256348 0.0549316 -9.79614 0.290351 -0.268844 -9.79667
ODOM 727360 40585 40822
IMU 727366 0.0640869 0.100708 -9.94263 0.286767 -0.250921 -9.77158
ODOM 727371 40586 40822
IMU 727376 0.0366211 0.192261 -9.97925 0.290351 -0.322613 -9.84327
ODOM 727381 40587 40823
IMU 727387 0.0274658 0.17395 -10.0067 0.265259 -0.25809 -9.78951
ODOM 727392 40587 40824
IMU 727397 0.0366211 0.164795 -9.93347 0.265259 -0.326197 -9.80384
ODOM 727403 40588 40825
IMU 727406 0.0640869 0.146484 -9.9884 0.265259 -0.268844 -9.80026
ODOM 727414 40588 40825
IMU 727418 0.00915527 0.00915527 -9.97009 0.265259 -0.283182 -9.78951
ODOM 727425 40589 40826
IMU 727426 -0.0366211 0.137329 -10.0983 0.254506 -0.30469 -9.82177
ODOM 727435 40589 40826
IMU 727436 0.0183105 0.109863 -10.1349 0.283182 -0.279598 -9.80743
ODOM 727446 40589 40827
